[
  {
    "name": "ปตร.คลองเกาะเกรียง",
    "lat": 13.943681396748623, 
    "lon": 100.50239525397583,
    "office" : "สำนักชลประทานที่ 11",
    "province": "ปทุมธานี",
    "river": "แม่น้ำเจ้าพระยา"
  }, 
  {
    "name": "ปตร.คลองบางนา",
    "lat": 14.038026035237262, 
    "lon": 100.54793141780549,  
    "office" : "สำนักชลประทานที่ 11",
    "province": "ปทุมธานี",
    "river": "แม่น้ำเจ้าพระยา"
  },
   {
    "name": "ปตร.บ้านท้องคุ้ง",
    "lat": 14.04212673589878, 
    "lon": 100.55738983068278,
    "office" : "สำนักชลประทานที่ 11",
    "province": "ปทุมธานี",
    "river": "แม่น้ำเจ้าพระยา"
  }, 
  {
    "name": "ปตร.คลองบางปรอก",
    "lat": 14.023376886316646, 
    "lon": 100.53459445767069,
    "office" : "สำนักชลประทานที่ 11",
    "province": "ปทุมธานี",
    "river": "แม่น้ำเจ้าพระยา"
  }, 
  {
    "name": "ปตร.คลองควาย",
    "lat":  13.96624355498925, 
    "lon": 100.52801415950282,
    "office" : "สำนักชลประทานที่ 11",
    "province": "ปทุมธานี",
    "river": "คลองเจตวงศ์"
  }, 
  {
    "name": "ปตร.บางโพธิ์ใต้",
    "lat":  14.004910519339091, 
    "lon": 100.47742971278812 ,
    "office" : "สำนักชลประทานที่ 11",
    "province": "ปทุมธานี",
    "river": "คลองบางโพธิ์ใต้"
  }, 
  {
    "name": "ปตร.คลองวัดตำหนัก",
    "lat":  14.064611768719399,  
    "lon": 100.53032724141876,
    "office" : "สำนักชลประทานที่ 11",
    "province": "ปทุมธานี",
    "river": "คลองเกาะใหม่"
  }, 
  {
    "name": "ปตร.คลองเกาะปิ้น",
    "lat":  14.056667008943661, 
    "lon": 100.53825602595415,
    "office" : "สำนักชลประทานที่ 11",
    "province": "ปทุมธานี",
    "river": "แม่น้ำเจ้าพระยา"
  }, 
  {
    "name": "ปตร.คลองบ้านธาตุ",
    "lat": 14.055440847526631,  
    "lon": 100.53939461479335,
    "office" : "สำนักชลประทานที่ 11",
    "province": "ปทุมธานี",
    "river": "แม่น้ำเจ้าพระยา"
  }, 
  {
    "name": "ปตร.คลองวัดสิงห์",
    "lat": 14.053585262553268, 
    "lon": 100.54148784570779,
    "office" : "สำนักชลประทานที่ 11",
    "province": "ปทุมธานี",
    "river": "แม่น้ำเจ้าพระยา"
  }, 
  {
    "name": "ปตร.คลองป่าฝ้าย",
    "lat": 14.050673781339814, 
    "lon": 100.5499117236628,
    "office" : "สำนักชลประทานที่ 11",
    "province": "ปทุมธานี",
    "river": "แม่น้ำเจ้าพระยา"
  }, 
  {
    "name": "ปตร.คลองขนอน",
    "lat": 14.050926335640503, 
    "lon": 100.54702035965211,
    "office" : "สำนักชลประทานที่ 11",
    "province": "ปทุมธานี",
    "river": "แม่น้ำเจ้าพระยา"
  }, 
  {
    "name": "ปตร.คลองวัดแจ้ง",
    "lat": 14.052587071917753, 
    "lon": 100.54324953769091,
    "office" : "สำนักชลประทานที่ 11",
    "province": "ปทุมธานี",
    "river": "คลองบางโพธิ์เหนือ"
  }, 
  {
    "name": "ปตร.คลองบางเตย",
    "lat": 14.068895967119706, 
    "lon": 100.52315029647056,
    "office" : "สำนักชลประทานที่ 11",
    "province": "ปทุมธานี",
    "river": "คลองบางเตย"
  }, 
  {
    "name": "ปตร.คลองคู่",
    "lat": 14.071940969337016, 
    "lon": 100.53470339186246,
    "office" : "สำนักชลประทานที่ 11",
    "province": "ปทุมธานี",
    "river": "คลองเจ้าพระยา"
  }, 
  {
    "name": "ปตร.บางเตย",
    "lat": 14.087073539617263, 
    "lon": 100.45267551326187,
    "office" : "สำนักชลประทานที่ 11",
    "province": "ปทุมธานี",
    "river": "คลองบางเตย"
  }, 
  {
    "name": "ปตร.เชียงรากน้อย",
    "lat": 14.127435420603506, 
    "lon": 100.58019714480689,
    "office" : "สำนักชลประทานที่ 11",
    "province": "ปทุมธานี",
    "river": "คลองเชียงรากน้อย"
  }, 
  {
    "name": "ปตร.กลางคลองเปรม",
    "lat": 14.124620410839816, 
    "lon": 100.58087890652541,
    "office" : "สำนักชลประทานที่ 11",
    "province": "ปทุมธานี",
    "river": "คลองเปรมประชากร"
  }, 
  {
    "name": "ปตร.ศาลาพัน",
    "lat": 14.095492941256214,  
    "lon": 100.58452991229981,
    "office" : "สำนักชลประทานที่ 11",
    "province": "ปทุมธานี",
    "river": "คลองคู"
  }, 
  {
    "name": "ปตร.บ้านพลับ",
    "lat": 14.101633396967252, 
    "lon": 100.55105466496263,
    "office" : "สำนักชลประทานที่ 11",
    "province": "ปทุมธานี",
    "river": "คลองบ้านพลับ"
  }, 
  {
    "name": "ปตร.คลองบางสีทอง",
    "lat": 13.839089069474015, 
    "lon": 100.48809772125855,
    "office" : "สำนักชลประทานที่ 11",
    "province": "นนทบุรี",
    "river": "คลองบางสีทอง"
  }, 
  {
    "name": "ปตร.คลองบางไผ่ใหญ่",
    "lat": 13.83142614401794, 
    "lon": 100.49376850438769,
    "office" : "สำนักชลประทานที่ 11",
    "province": "นนทบุรี",
    "river": "แม่น้ำเจ้าพระยา"
  }, 
  {
    "name": "ปตร.คลองบางไผ่น้อย",
    "lat": 13.826056037798164, 
    "lon": 100.49657113298103,
    "office" : "สำนักชลประทานที่ 11",
    "province": "นนทบุรี",
    "river": "แม่น้ำเจ้าพระยา"
  }, 
  {
    "name": "ปตร.คลองวัดค้างคาว",
    "lat": 13.820390423151078,  
    "lon": 100.49998283292835,
    "office" : "สำนักชลประทานที่ 11",
    "province": "นนทบุรี",
    "river": "แม่น้ำเจ้าพระยา"
  }, 
  {
    "name": "ปตร.คลองบางตลาด",
    "lat": 13.894509413295134, 
    "lon": 100.492998649076,
    "office" : "สำนักชลประทานที่ 11",
    "province": "นนทบุรี",
    "river": "คลองบางตลาด"
  }, 
  {
    "name": "ปตร.คลองข่อย",
    "lat": 13.939304707401933,  
    "lon": 100.46913892698413,
    "office" : "สำนักชลประทานที่ 11",
    "province": "นนทบุรี",
    "river": "คลองพระอุดม"
  }, 
  {
    "name": "ปตร.คลองไทร",
    "lat": 13.941550268751763, 
    "lon": 100.4750886904722,
    "office" : "สำนักชลประทานที่ 11",
    "province": "นนทบุรี",
    "river": "คลองพระอุดม"
  }, 
  {
    "name": "ปตร.คลองแหลมกลาง",
    "lat": 13.93025195284034, 
    "lon": 100.4827922792768,
    "office" : "สำนักชลประทานที่ 11",
    "province": "นนทบุรี",
    "river": "คลองบ้านแหลมกลาง"
  }, 
  {
    "name": "ปตร.คลองแหลมเหนือ",
    "lat": 13.93083147508462, 
    "lon": 100.48610729789591,
    "office" : "สำนักชลประทานที่ 11",
    "province": "นนทบุรี",
    "river": "คลองบ้านแหลมเหนือ"
  }, 
  {
    "name": "ปตร.คลองบางภูมิ",
    "lat": 13.92482675515411, 
    "lon": 100.46991067143367,
    "office" : "สำนักชลประทานที่ 11",
    "province": "นนทบุรี",
    "river": "คลองบางภูมิ"
  }, 
  {
    "name": "ปตร.คลองบางบัวทอง",
    "lat": 13.909100674325572, 
    "lon": 100.46616922812495,
    "office" : "สำนักชลประทานที่ 11",
    "province": "นนทบุรี",
    "river": "แม่น้ำเจ้าพระยา"
  }, 
  {
    "name": "ปตร.คลองบางตะไนย์",
    "lat": 13.938182649735806, 
    "lon": 100.49852923561258,
    "office" : "สำนักชลประทานที่ 11",
    "province": "นนทบุรี",
    "river": "คลองบางตะไนย์"
  }, 
  {
    "name": "ปตร.คลองพระอุดม",
    "lat": 13.91774888713156,  
    "lon": 100.48094995449993,
    "office" : "สำนักชลประทานที่ 11",
    "province": "นนทบุรี",
    "river": "คลองพระอุดม"
  }, 
  {
    "name": "ปตร.คลองอ้อมนนท์",
    "lat": 13.853744062299253, 
    "lon": 100.47786391922615,
    "office" : "สำนักชลประทานที่ 11",
    "province": "นนทบุรี",
    "river": "แม่น้ำเจ้าพระยา"
  }, 
  {
    "name": "ปตร.คลองสวนพริก",
    "lat": 13.871075912324418, 
    "lon": 100.47397500777133,
    "office" : "สำนักชลประทานที่ 11",
    "province": "นนทบุรี",
    "river": "คลองสวนพริก"
  }, 
  {
    "name": "ปตร.คลองหลุมมะดัน",
    "lat": 13.874388428846895, 
    "lon": 100.4743824918983,
    "office" : "สำนักชลประทานที่ 11",
    "province": "นนทบุรี",
    "river": "แม่น้ำเจ้าพระยา"
  }, 
  {
    "name": "ปตร.คลองบางกระสอ",
    "lat": 13.874978515621072, 
    "lon": 100.48237676551055,
    "office" : "สำนักชลประทานที่ 11",
    "province": "นนทบุรี",
    "river": "แม่น้ำเจ้าพระยา"
  }, 
  {
    "name": "ปตร.คลองบางพลับ",
    "lat": 13.918438846861722, 
    "lon": 100.46568249186103,
    "office" : "สำนักชลประทานที่ 11",
    "province": "นนทบุรี",
    "river": "คลองบางพลับใหญ่"
  }, 
  {
    "name": "ปตร.คลองบางวัด",
    "lat": 13.92142716995073, 
    "lon": 100.46821024403685,
    "office" : "สำนักชลประทานที่ 11",
    "province": "นนทบุรี",
    "river": "แม่น้ำเจ้าพระยา"
  }, 
  {
    "name": "ปตร.คลองบางน้อย",
    "lat": 13.913321409878147,
    "lon": 100.46527944874886,
    "office" : "สำนักชลประทานที่ 11",
    "province": "นนทบุรี",
    "river": "แม่น้ำเจ้าพระยา"
  }, 
  {
    "name": "ปตร.คลองบางแพรก 1 ",
    "lat": 13.849869121652457, 
    "lon": 100.49068693414279,
    "office" : "สำนักชลประทานที่ 11",
    "province": "นนทบุรี",
    "river": "คลองบางแพรก"
  }, 
  {
    "name": "ปตร.คลองบางไผ่ใหญ่",
    "lat": 13.831423597739994, 
    "lon": 100.4937325573479,
    "office" : "สำนักชลประทานที่ 11",
    "province": "นนทบุรี",
    "river": "แม่น้ำเจ้าพระยา"
  }, 
  {
    "name": "ปตร.คลองบางพัง",
    "lat": 13.92383600779796, 
    "lon": 100.50309687915588,
    "office" : "สำนักชลประทานที่ 11",
    "province": "นนทบุรี",
    "river": "คลองบางพูด"
  }, 
  {
    "name": "ปตร.คลองบ้านใหม่",
    "lat": 13.944280389231576, 
    "lon": 100.54430771492851,
    "office" : "สำนักชลประทานที่ 11",
    "province": "นนทบุรี",
    "river": "คลองบ้านเก่า "
  }, 
  {
    "name": "ปตร.คลองบางพูด",
    "lat": 13.906321308740992, 
    "lon": 100.49227149953198,
    "office" : "สำนักชลประทานที่ 11",
    "province": "นนทบุรี",
    "river": "คลองลัดเกล็ด"
  }, 
  {
    "name": "ปตร.คลองบางไผ่",
    "lat": 13.88266139880076, 
    "lon": 100.42698988099008,
    "office" : "สำนักชลประทานที่ 11",
    "province": "นนทบุรี",
    "river": "คลองอ้อม"
  }, 
  {
    "name": "ปตร.บ้านกล้วย",
    "lat": 13.908954368131672, 
    "lon": 100.40807125190292,
    "office" : "สำนักชลประทานที่ 11",
    "province": "นนทบุรี",
    "river": "คลองบ้านกล้วย"
  }, 
  {
    "name": "ปตร.นายจอน",
    "lat": 13.918834254315696, 
    "lon": 100.40634731779129,
    "office" : "สำนักชลประทานที่ 11",
    "province": "นนทบุรี",
    "river": "คลองผู้ใหญ่จอน"
  }, 
  {
    "name": "ปตร.ปากคลองโต๊ะใหม่",
    "lat": 13.941064359957121, 
    "lon": 100.36828703314066,
    "office" : "สำนักชลประทานที่ 11",
    "province": "นนทบุรี",
    "river": "คอลงโต๊ะใหม่"
  }, 
  {
    "name": "ปตร.ปากคลองตาชม",
    "lat": 13.94675438996707, 
    "lon": 100.35379140741479,
    "office" : "สำนักชลประทานที่ 11",
    "province": "นนทบุรี",
    "river": "คลองตาชม"
  }, 
  {
    "name": "ปตร.ลำลี",
    "lat": 13.976519565640464, 
    "lon": 100.37978554848341,
    "office" : "สำนักชลประทานที่ 11",
    "province": "นนทบุรี",
    "river": "คลองสำรี"
  }, 
  {
    "name": "ปตร.คลองธรรมบาล",
    "lat": 13.988514168218591,  
    "lon": 100.38185695534891,
    "office" : "สำนักชลประทานที่ 11",
    "province": "นนทบุรี",
    "river": "คลองลากค้อน"
  }, 
  {
    "name": "ปตร.ระบายน้่ำคลองวัดสนามนอก",
    "lat": 13.796688113207367, 
    "lon": 100.47140730802064,
    "office" : "สำนักชลประทานที่ 11",
    "province": "นนทบุรี",
    "river": "คลองบางกอกน้อย"
  }, 
  {
    "name": "ปตร.วัดทองสะอาด",
    "lat": 13.980396873467573, 
    "lon": 100.4359790615696,
    "office" : "สำนักชลประทานที่ 11",
    "province": "นนทบุรี",
    "river": "คลองตรง"
  }, 
  {
    "name": "ปตร.ปากตลองตรง",
    "lat": 13.994581845321378, 
    "lon": 100.3820588620187,
    "office" : "สำนักชลประทานที่ 11",
    "province": "นนทบุรี",
    "river": "คลองตรง"
  }, 
  {
    "name": "ปตร.คลองท่าทราย",
    "lat": 13.89451440553053, 
    "lon": 100.49304791946082,
    "office" : "สำนักชลประทานที่ 11",
    "province": "นนทบุรี",
    "river": "คลองบางตลาด"
  }, 
  {
    "name": "ปตร.คลองบางซื่อน้อย",
    "lat": 13.860677443645542, 
    "lon": 100.48206303902086,
    "office" : "สำนักชลประทานที่ 11",
    "province": "นนทบุรี",
    "river": "คลองบางซื่อ"
  }, 
  {
    "name": "ปคร.คลองตาล้อม",
    "lat": 13.621923964069191, 
    "lon": 100.21054502310731,
    "office" : "สำนักชลประทานที่ 11",
    "province": "สมุทรสาคร",
    "river": "คลองม่วง"
  }, 
  {
    "name": "ปตร.คลองตาเบี้ยว",
    "lat": 13.6085008161111, 
    "lon": 100.22667620389221,
    "office" : "สำนักชลประทานที่ 11",
    "province": "สมุทรสาคร",
    "river": "แม่น้ำท่าจีน"
  }, 
  {
    "name": "ปคร.คลองเกาะ",
    "lat": 13.594349447988229,  
    "lon": 100.22255426604346,
    "office" : "สำนักชลประทานที่ 11",
    "province": "สมุทรสาคร",
    "river": "แม่น้ำท่าจีน"
  }, 
  {
    "name": "ปคร.คลองรางจันทร์",
    "lat": 13.43636557458441, 
    "lon": 100.11290271264885,
    "office" : "สำนักชลประทานที่ 11",
    "province": "สมุทรสาคร",
    "river": "อ่าวไทย"
  }, 
  {
    "name": "ปตร.คลองโคกขามเก่า",
    "lat": 13.553921936183349, 
    "lon": 100.36346357718409,
    "office" : "สำนักชลประทานที่ 11",
    "province": "สมุทรสาคร",
    "river": "คลองโคกขามขุดใหม่"
  }, 
  {
    "name": "ปตร.คลองสหกรณ์สาย 4",
    "lat": 13.558767817161957, 
    "lon": 100.36495132660724,
    "office" : "สำนักชลประทานที่ 11",
    "province": "สมุทรสาคร",
    "river": "คลองสหกรณ์สาย 4"
  }, 
  {
    "name": "ปตร.สหกรณ์สาย 5",
    "lat": 13.56670381493728, 
    "lon": 100.37190956678342,
    "office" : "สำนักชลประทานที่ 11",
    "province": "สมุทรสาคร",
    "river": "คลองหนองปง"
  }, 
  {
    "name": "ปตร.สหกรณ์สาย 3",
    "lat": 13.548518220330102, 
    "lon": 100.34917278236203,
    "office" : "สำนักชลประทานที่ 11",
    "province": "สมุทรสาคร",
    "river": "คลองสหกรณ์สาย 3"
  }, 
  {
    "name": "ปตร.คลองเจ๊ก",
    "lat": 13.548878433981331, 
    "lon": 100.34945851105084,
    "office" : "สำนักชลประทานที่ 11",
    "province": "สมุทรสาคร",
    "river": "คลองเจ็ก"
  }, 
  {
    "name": "ปตร.ลัดตะเคียน",
    "lat": 13.568298093056386, 
    "lon": 100.3766594224317,
    "office" : "สำนักชลประทานที่ 11",
    "province": "สมุทรสาคร",
    "river": "คลองลัดตะเคียน"
  }, 
  {
    "name": "ปตร.คลองตาขุน",
    "lat": 13.55497891720028, 
    "lon": 100.30157292450191,
    "office" : "สำนักชลประทานที่ 11",
    "province": "สมุทรสาคร",
    "river": "คลองมหาชัย"
  }, 
  {
    "name": "ปตร.คลองแค",
    "lat": 13.556984828284762, 
    "lon": 100.30632884873137,
    "office" : "สำนักชลประทานที่ 11",
    "province": "สมุทรสาคร",
    "river": "คลองมหาชัย"
  }, 
  {
    "name": "ปตร.คลองหวายลิงใหญ่",
    "lat": 13.557879385460016, 
    "lon": 100.3042469999975,
    "office" : "สำนักชลประทานที่ 11",
    "province": "สมุทรสาคร",
    "river": "คลองหวายลิง"
  }, 
  {
    "name": "ปตร.คลองหวายลิงเล็ก",
    "lat": 13.555182544078244, 
    "lon": 100.29926342693992,
    "office" : "สำนักชลประทานที่ 11",
    "province": "สมุทรสาคร",
    "river": "คลองมหาชัย"
  }, 
  {
    "name": "ปตร.คลองวัดเจษฎาราม",
    "lat": 13.551249050044019, 
    "lon": 100.29331775754346,
    "office" : "สำนักชลประทานที่ 11",
    "province": "สมุทรสาคร",
    "river": "คลองกระเจ็ด"
  }, 
  {
    "name": "ปตร.คลองจาก",
    "lat": 13.54934111727533, 
    "lon": 100.28643291570975,
    "office" : "สำนักชลประทานที่ 11",
    "province": "สมุทรสาคร",
    "river": "คลองเอกชัย"
  }, 
  {
    "name": "ปตร.คลองลัดป้อม",
    "lat": 13.544195268564124, 
    "lon": 100.26767762895552,
    "office" : "สำนักชลประทานที่ 11",
    "province": "สมุทรสาคร",
    "river": "แม่น้ำท่าจีน"
  }, 
  {
    "name": "ปตร.หนองหมู",
    "lat": 14.299956357220811,  
    "lon": 100.94544336485714,
    "office" : "สำนักชลประทานที่ 11",
    "province": "คบ.รังสิตเหนือ",
    "river": "คลองแม่น้ำใน"
  }, 
  {
    "name": "ปตร.ปากคลองส่งน้ำ 5 ซ้าย",
    "lat": 14.194339595721036, 
    "lon": 100.72099941173929,
    "office" : "สำนักชลประทานที่ 11",
    "province": "คบ.รังสิตเหนือ",
    "river": "ปากคลองส่งน้ำ 5 "
  }, 
  {
    "name": "ปตร.ปากคลองส่งน้ำ 6 ซ้าย",
    "lat": 14.183975672942932, 
    "lon": 100.69876459629566,
    "office" : "สำนักชลประทานที่ 11",
    "province": "คบ.รังสิตเหนือ",
    "river": "ปากคลองส่งน้ำ 6"
  }, 
  {
    "name": "ปตร.ปลายคลองระบายน้ำที่ 4",
    "lat": 13.997169258559016, 
    "lon": 100.68752619121788,
    "office" : "สำนักชลประทานที่ 11",
    "province": "คบ.รังสิตเหนือ",
    "river": "คลองสี่"
  }, 
  {
    "name": "ปตร.ปลายคลองระบายน้ำที่ 3 ",
    "lat": 14.003154269407329, 
    "lon": 100.66401648676604,
    "office" : "สำนักชลประทานที่ 11",
    "province": "คบ.รังสิตเหนือ",
    "river": "คลองสาม"
  }, 
  {
    "name": "ปตร.ปากคลอง 3",
    "lat": 13.994023165653031, 
    "lon": 100.66404445981176,
    "office" : "สำนักชลประทานที่ 11",
    "province": "คบ.รังสิตเหนือ",
    "river": "คลองสาม"
  }, 
  {
    "name": "ปตร.ปากคลอง 2 ",
    "lat": 13.989024109311062, 
    "lon": 100.64245699999991,
    "office" : "สำนักชลประทานที่ 11",
    "province": "คบ.รังสิตเหนือ",
    "river": "คลองสอง"
  }, 
  {
    "name": "ปตร.คลองคู่ขนานพหลโยธิน",
    "lat": 13.973153290610382, 
    "lon": 100.61990266157362,
    "office" : "สำนักชลประทานที่ 11",
    "province": "คบ.รังสิตเหนือ",
    "river": "คลองหนึ่ง"
  }, 
  {
    "name": "ปตร.ปลายคลองระบายน้ำที่ 7 ",
    "lat": 14.030896332991606, 
    "lon": 100.75598805776568,
    "office" : "สำนักชลประทานที่ 11",
    "province": "คบ.รังสิตเหนือ",
    "river": "คลองเจ็ด"
  }, 
  {
    "name": "ปตร.ปลายคลองระบายน้ำที่ 6",
    "lat": 14.020695422528489, 
    "lon": 100.73228267651015,
    "office" : "สำนักชลประทานที่ 11",
    "province": "คบ.รังสิตเหนือ",
    "river": "คลองหก"
  }, 
  {
    "name": "ปตร.ปลายคลองระบายน้ำที่ 5",
    "lat": 14.01154177637773, 
    "lon": 100.70994413325508,
    "office" : "สำนักชลประทานที่ 11",
    "province": "คบ.รังสิตเหนือ",
    "river": "คลองห้า"
  }, 
  {
    "name": "ปตร.ปากคลอง 5 ",
    "lat": 14.00863028448331, 
    "lon": 100.70984290081839,
    "office" : "สำนักชลประทานที่ 11",
    "province": "คบ.รังสิตเหนือ",
    "river": "คลองรังสิตดประยูรศักดิ์"
  }, 
  {
    "name": "ปตร.ปากคลองระบายน้ำที่ 9",
    "lat": 14.046150686503832, 
    "lon": 100.80129210825257,
    "office" : "สำนักชลประทานที่ 11",
    "province": "คบ.รังสิตเหนือ",
    "river": "คลองรังสิตดประยูรศักดิ์"
  }, 
  {
    "name": "ปตร.กลางคลองรังสิต ",
    "lat": 14.0386102464669, 
    "lon": 100.78445640780394,
    "office" : "สำนักชลประทานที่ 11",
    "province": "คบ.รังสิตเหนือ",
    "river": "คลองรังสิตดประยูรศักดิ์"
  }, 
  {
    "name": "ปตร.กลางคลองรังสิตฯ 8-9 ",
    "lat": 14.038671897845248,  
    "lon": 100.77884378402601,
    "office" : "สำนักชลประทานที่ 11",
    "province": "คบ.รังสิตเหนือ",
    "river": "คลองรังสิตดประยูรศักดิ์"
  }, 
  {
    "name": "ปตร.ปลายคลองระบายน้ำที่ 8 ",
    "lat": 14.038692765483662, 
    "lon": 100.7844290266264,
    "office" : "สำนักชลประทานที่ 11",
    "province": "คบ.รังสิตเหนือ",
    "river": "คลองรังสิตดประยูรศักดิ์"
  }, 
  {
    "name": "ปตร.แยก 1 ขวา",
    "lat": 14.275525355158589,  
    "lon": 100.89052030651035,
    "office" : "สำนักชลประทานที่ 11",
    "province": "คบ.รังสิตเหนือ",
    "river": "คลองแม่น้ำใน"
  }, 
  {
    "name": "ปตร.ปากคลองระบายน้ำที่ 12 ",
    "lat": 14.2648183670678,   
    "lon": 100.86871525024246,
    "office" : "สำนักชลประทานที่ 11",
    "province": "คบ.รังสิตเหนือ",
    "river": "คลองแม่น้ำใน"
  }, 
  {
    "name": "ปตร.ปลายคลองแยก 1 ขวา ",
    "lat": 14.243863719035323, 
    "lon": 100.82311234457278,
    "office" : "สำนักชลประทานที่ 11",
    "province": "คบ.รังสิตเหนือ",
    "river": "คลองระพีพัฒน์แยกตก"
  }, 
  {
    "name": "ปตร.ปากคลองส่งน้ำ 1 ซ้าย ",
    "lat": 14.237492667658463, 
    "lon": 100.81135537029846,
    "office" : "สำนักชลประทานที่ 11",
    "province": "คบ.รังสิตเหนือ",
    "river": "คลองระพีพัฒน์แยกตก"
  }, 
  {
    "name": "ปตร.ปากคลองส่งน้ำ 2 ซ้าย",
    "lat": 14.237494443963596, 
    "lon": 100.81135800907465,
    "office" : "สำนักชลประทานที่ 11",
    "province": "คบ.รังสิตเหนือ",
    "river": "คลองระพีพัฒน์แยกตก"
  }, 
  {
    "name": "ปตร.ปากคลองส่งน้ำ 4 ซ้าย",
    "lat": 14.194346876162582, 
    "lon": 100.72099895579518,
    "office" : "สำนักชลประทานที่ 11",
    "province": "คบ.รังสิตเหนือ",
    "river": "คลองระพีพัฒน์แยกตก"
  }, 
  {
    "name": "ปตร.ปากคลองส่งน้ำ 3 ซ้าย",
    "lat": 14.216181959928623, 
    "lon": 100.76649072664686,
    "office" : "สำนักชลประทานที่ 11",
    "province": "คบ.รังสิตเหนือ",
    "river": "คลองระพีพัฒน์แยกตก"
  }, 
  {
    "name": "ปตร.กลางคลองรังสิตฯ 12-13",
    "lat": 14.070839885581076, 
    "lon": 100.8771745234393,
    "office" : "สำนักชลประทานที่ 11",
    "province": "คบ.รังสิตเหนือ",
    "river": "คลองรังสิตดประยูรศักดิ์"
  }, 
  {
    "name": "ปตร.ปลายคลองระบายน้ำที่ 12",
    "lat": 14.070839885581076, 
    "lon": 100.8771745234393,
    "office" : "สำนักชลประทานที่ 11",
    "province": "คบ.รังสิตเหนือ",
    "river": "คลองรังสิตดประยูรศักดิ์"
  }, 
  {
    "name": "ปตร.ปลายคลองระบายน้ำที่ 11",
    "lat": 14.06177981705375, 
    "lon": 100.84670430901105,
    "office" : "สำนักชลประทานที่ 11",
    "province": "คบ.รังสิตเหนือ",
    "river": "คลองสิบเอ็ด"
  }, 
  {
    "name": "ปตร.ปลายคลอง 2อ.",
    "lat": 14.13496593834331, 
    "lon": 100.91367003548577,
    "office" : "สำนักชลประทานที่ 11",
    "province": "คบ.รังสิตเหนือ",
    "river": "คลองสิบสี่"
  }, 
  {
    "name": "ปตร.เอสเคป",
    "lat": 14.14475854722369, 
    "lon": 100.6206426234036,
    "office" : "สำนักชลประทานที่ 11",
    "province": "คบ.รังสิตเหนือ",
    "river": "คลองเชียงรากน้อย"
  }, 
  {
    "name": "ปตร.กลางครอง 1 ",
    "lat": 14.14475854722369, 
    "lon": 100.6206426234036,
    "office" : "สำนักชลประทานที่ 11",
    "province": "คบ.รังสิตเหนือ",
    "river": "คลองเชียงรากน้อย"
  }, 
  {
    "name": "ปตร.ลำเรือแตก",
    "lat": 14.143738552651344, 
    "lon": 100.62080666510752,
    "office" : "สำนักชลประทานที่ 11",
    "province": "คบ.รังสิตเหนือ",
    "river": "คลองระพีพัฒน์แยกตก"
  }, 
  {
    "name": "ปตร.พระธรรมราชา",
    "lat": 14.077606676502798, 
    "lon": 100.89207384487653,
    "office" : "สำนักชลประทานที่ 11",
    "province": "คบ.รังสิตเหนือ",
    "river": "คลองสาม"
  }, 
  {
    "name": "ปตร.ปากคลอง 4",
    "lat": 13.999066460056932, 
    "lon": 100.6875501343432,
    "office" : "สำนักชลประทานที่ 11",
    "province": "คบ.รังสิตเหนือ",
    "river": "คลองสี่"
  }, 
  {
    "name": "ปตร.ปากคลองส่งน้ำ 8 ซ้าย ",
    "lat": 14.159971986635881, 
    "lon": 100.65254623848465,
    "office" : "สำนักชลประทานที่ 11",
    "province": "คบ.รังสิตเหนือ",
    "river": "คลองระพีพัฒน์แยกตก"
  }, 
  {
    "name": "ปตร.ปากคลองส่งน้ำ 7 ซ้าย",
    "lat": 14.17151108686253, 
    "lon": 100.67455068076366,
    "office" : "สำนักชลประทานที่ 11",
    "province": "คบ.รังสิตเหนือ",
    "river": "คลองระพีพัฒน์แยกตก"
  }, 
  {
    "name": "ปตร.พระยาสุเรนทร์",
    "lat": 13.921172184242476,  
    "lon": 100.6871973360188,
    "office" : "สำนักชลประทานที่ 11",
    "province": "คบ.รังสิตใต้",
    "river": "คลองบึงพระยาสุเรนทร์"
  }, 
  {
    "name": "ปตร.ปากคลองระบายน้ำที่ 5 ",
    "lat": 14.008628180946578, 
    "lon": 100.70983984353414,
    "office" : "สำนักชลประทานที่ 11",
    "province": "คบ.รังสิตใต้",
    "river": "คลองรังสิตดประยูรศักดิ์"
  }, 
  {
    "name": "ปตร.กลางคลอง 7",
    "lat": 13.984025911175324, 
    "lon": 100.75354690477401,
    "office" : "สำนักชลประทานที่ 11",
    "province": "คบ.รังสิตใต้",
    "river": "คลองเจ็ด"
  }, 
  {
    "name": "ปตร.กลางคลอง 8",
    "lat": 13.985385419718837, 
    "lon": 100.77529422279181,
    "office" : "สำนักชลประทานที่ 11",
    "province": "คบ.รังสิตใต้",
    "river": "คลองแปด"
  }, 
  {
    "name": "ปตร.กลางคลอง 9",
    "lat": 13.995616788124796, 
    "lon": 100.79740014289104,
    "office" : "สำนักชลประทานที่ 11",
    "province": "คบ.รังสิตใต้",
    "river": "คลองเก้า"
  }, 
  {
    "name": "ปตร.ปากคลอง 9",
    "lat": 13.943729547634415, 
    "lon": 100.79266039309957,
    "office" : "สำนักชลประทานที่ 11",
    "province": "คบ.รังสิตใต้",
    "river": "คลองเก้า"
  }, 
  {
    "name": "ปตร.กลางคลอง 10 ",
    "lat": 14.0043756758822, 
    "lon": 100.82030281980089,
    "office" : "สำนักชลประทานที่ 11",
    "province": "คบ.รังสิตใต้",
    "river": "คลองสิบ"
  }, 
  {
    "name": "ปตร.ปากคลอง 10",
    "lat": 13.946206235543377, 
    "lon": 100.8156273534993,
    "office" : "สำนักชลประทานที่ 11",
    "province": "คบ.รังสิตใต้",
    "river": "คลองสิบ"
  }, 
  {
    "name": "ปตร.กลางคลอง 11 ",
    "lat": 14.008928437459321, 
    "lon": 100.84430933012176,
    "office" : "สำนักชลประทานที่ 11",
    "province": "คบ.รังสิตใต้",
    "river": "คลองสิบเอ็ด"
  }, 
  {
    "name": "ปตร.ปากคลอง 11 ",
    "lat": 13.949148271797139, 
    "lon": 100.84114817990633,
    "office" : "สำนักชลประทานที่ 11",
    "province": "คบ.รังสิตใต้",
    "river": "คลองสิบเอ็ด"
  }, 
  {
    "name": "ปตร.กลางคลอง 12 ",
    "lat": 14.005944871367035, 
    "lon": 100.86670318305995,
    "office" : "สำนักชลประทานที่ 11",
    "province": "คบ.รังสิตใต้",
    "river": "คลองสิบสอง"
  }, 
  {
    "name": "ปตร.ปากคลอง 12",
    "lat": 13.94529725163414, 
    "lon": 100.86398342862027,
    "office" : "สำนักชลประทานที่ 11",
    "province": "คบ.รังสิตใต้",
    "river": "คลองสิบสอง"
  }, 
  {
    "name": "ปตร.กลางคลอง 14",
    "lat": 14.005780968537664, 
    "lon": 100.91443640554229,
    "office" : "สำนักชลประทานที่ 11",
    "province": "คบ.รังสิตใต้",
    "river": "คลองสิบสอง"
  }, 
  {
    "name": "ปตร.ประตูกลาง ค.ประเวศบุรีรัมย์",
    "lat": 13.684711161072212, 
    "lon": 100.89310585210272,
    "office" : "สำนักชลประทานที่ 11",
    "province": "คบ.พระองค์ไชยานุชิต",
    "river": "คลองประเวศบุรีรมภ์"
  }, 
  {
    "name": "ปตร.บ้านคลองสายทอง",
    "lat": 13.548194069477237,  
    "lon": 100.86947114914824,
    "office" : "สำนักชลประทานที่ 11",
    "province": "คบ.พระองค์ไชยานุชิต",
    "river": "คลองบางเพ็ง"
  }, 
  {
    "name": "ปตร.คลองช้างตายล่าง",
    "lat": 13.647801166027115,  
    "lon": 100.86170702249784,
    "office" : "สำนักชลประทานที่ 11",
    "province": "คบ.พระองค์ไชยานุชิต",
    "river": "คลองช้างตายล่าง"
  }, 
  {
    "name": "ปตร.คลองช้วดใหญ่",
    "lat": 13.643407454810086,   
    "lon": 100.86166226420998,
    "office" : "สำนักชลประทานที่ 11",
    "province": "คบ.พระองค์ไชยานุชิต",
    "river": "คลองขวดใหญ่"
  }, 
  {
    "name": "ปตร.คลองยายทิ่ม",
    "lat": 13.623587589975163, 
    "lon": 100.85659373496138,
    "office" : "สำนักชลประทานที่ 11",
    "province": "คบ.พระองค์ไชยานุชิต",
    "river": "คลองสนามพบลี"
  }, 
  {
    "name": "ปตร.คลองชวดพร้าว",
    "lat": 13.590393387099708,  
    "lon": 100.85831683440674,
    "office" : "สำนักชลประทานที่ 11",
    "province": "คบ.พระองค์ไชยานุชิต",
    "river": "คลองชวดพร้าว"
  }, 
  {
    "name": "ปตร.ชลหารพิจิตร",
    "lat": 13.516499900548434, 
    "lon": 100.82238104909979,
    "office" : "สำนักชลประทานที่ 11",
    "province": "คบ.พระองค์ไชยานุชิต",
    "river": "คลองด่าน"
  }, 
  {
    "name": "ปตร.กลางคลองข้างคันกั้นน้ำชายทะเล(กม 21 + 800)",
    "lat": 13.50318355755171, 
    "lon": 100.83766345977557,
    "office" : "สำนักชลประทานที่ 11",
    "province": "คบ.พระองค์ไชยานุชิต",
    "river": "คลองใหม่"
  }, 
  {
    "name": "ปตร.จางวาง",
    "lat": 13.563438022888585, 
    "lon": 101.01975714818066,
    "office" : "สำนักชลประทานที่ 11",
    "province": "คบ.พระองค์ไชยานุชิต",
    "river": "คลองจางวาง"
  }, 
  {
    "name": "ปตร.ปากตะคลอง",
    "lat": 13.542337605309328, 
    "lon": 100.98742041959491,
    "office" : "สำนักชลประทานที่ 11",
    "province": "คบ.พระองค์ไชยานุชิต",
    "river": "คลองสำโรง"
  }, 
  {
    "name": "ปตร.กลางคลองข้้างคันกั้นน้ำชายทะเล(เทพรังสรรค์)",
    "lat": 13.494471334383439, 
    "lon": 100.95950602613443,
    "office" : "สำนักชลประทานที่ 11",
    "province": "คบ.พระองค์ไชยานุชิต",
    "river": "คลองใหม่"
  }, 
  {
    "name": "ปตร.แสนภูดาษ",
    "lat": 13.585542733955371, 
    "lon": 101.02536815588044,
    "office" : "สำนักชลประทานที่ 11",
    "province": "คบ.พระองค์ไชยานุชิต",
    "river": "คลองแสนภูดาษ"
  }, 
  {
    "name": "ปตร.ลาดขวาง",
    "lat": 13.592962581884592, 
    "lon": 101.03151154145012,
    "office" : "สำนักชลประทานที่ 11",
    "province": "คบ.พระองค์ไชยานุชิต",
    "river": "คลองลาดขวาง"
  }, 
  {
    "name": "ปตร.กึ่งถาวรบึงบางใหญ่",
    "lat": 13.783196325881361, 
    "lon": 101.0154783417945,
    "office" : "สำนักชลประทานที่ 11",
    "province": "คบ.พระองค์ไชยานุชิต",
    "river": "คลองต้นไทร"
  }, 
  {
    "name": "ปตร.กึ่งถาวรขวางเปร็ง",
    "lat": 13.7795284835181, 
    "lon": 100.98369185043195,
    "office" : "สำนักชลประทานที่ 11",
    "province": "คบ.พระองค์ไชยานุชิต",
    "river": "คลองนครเนื่องเขต"
  }, 
  {
    "name": "ปตร.กึ่งถาวรขคลองบางลำภู",
    "lat": 13.728154865793805, 
    "lon": 101.04931418106773,
    "office" : "สำนักชลประทานที่ 11",
    "province": "คบ.พระองค์ไชยานุชิต",
    "river": "คลองนครเนื่องเขค"
  }, 
  {
    "name": "ปตร.บ้านใหม่",
    "lat": 13.711899489283176, 
    "lon": 101.08511855582239,
    "office" : "สำนักชลประทานที่ 11",
    "province": "คบ.พระองค์ไชยานุชิต",
    "river": "คลองกลาง"
  }, 
  {
    "name": "ปตร.กึ่งภาวรบางลำภู",
    "lat": 13.728158741684812, 
    "lon": 101.04932535262716,
    "office" : "สำนักชลประทานที่ 11",
    "province": "คบ.พระองค์ไชยานุชิต",
    "river": "คลองกลาง"
  }, 
  {
    "name": "ปตร.คลองประเวศน์ฯ",
    "lat": 13.684711806357418, 
    "lon": 100.89311583405812,
    "office" : "สำนักชลประทานที่ 11",
    "province": "คบ.พระองค์ไชยานุชิต",
    "river": "คลองประเวศบุรีรมภ์"
  }, 
  {
    "name": "ปตร.ประตูกลาง ค.ประเวศบุรีรัมย์",
    "lat": 13.684701394840777, 
    "lon": 100.89310792208585,
    "office" : "สำนักชลประทานที่ 11",
    "province": "คบ.พระองค์ไชยานุชิต",
    "river": "คลองประเวศบุรีรมภ์"
  }, 
  {
    "name": "ปตร.คลองลำต้อยติ่ง",
    "lat": 13.784161344404465, 
    "lon": 100.93585927186221,
    "office" : "สำนักชลประทานที่ 11",
    "province": "คบ.พระองค์ไชยานุชิต",
    "river": "คลองพระองค์เจ้าไชยานุชิต"
  }, 
  {
    "name": "ปตร.คลองลำอ้ายโกง",
    "lat": 13.784688545854246, 
    "lon": 100.93645407902832,
    "office" : "สำนักชลประทานที่ 11",
    "province": "คบ.พระองค์ไชยานุชิต",
    "river": "คลองพระองค์เจ้าไชยานุชิต"
  }, 
  {
    "name": "ปตร.คลองสองหลวงแพ่ง",
    "lat": 13.744109921548645, 
    "lon": 100.90370268975863,
    "office" : "สำนักชลประทานที่ 11",
    "province": "คบ.พระองค์ไชยานุชิต",
    "river": "คลองพระองค์เจ้าไชยานุชิต"
  }, 
  {
    "name": "ปตร.คลองหนึ่งหลวงแพ่ง",
    "lat": 13.7300767924522, 
    "lon": 100.89054265981376,
    "office" : "สำนักชลประทานที่ 11",
    "province": "คบ.พระองค์ไชยานุชิต",
    "river": "คลองพระองค์เจ้าไชยานุชิต"
  }, 
  {
    "name": "ปตร.บางห้าง",
    "lat": 13.791869876285784, 
    "lon": 101.1770985576095,
    "office" : "สำนักชลประทานที่ 11",
    "province": "คบ.พระองค์ไชยานุชิต",
    "river": "คลองบางห้าง"
  }, 
  {
    "name": "ปตร.บางอ่าง",
    "lat": 13.780975272649153, 
    "lon": 101.1740752894623,
    "office" : "สำนักชลประทานที่ 11",
    "province": "คบ.พระองค์ไชยานุชิต",
    "river": "คลองหัวลำพู"
  }, 
  {
    "name": "ปตร.กลางคลองบางขนาก",
    "lat": 13.83919779707074, 
    "lon": 100.98486585782726,
    "office" : "สำนักชลประทานที่ 11",
    "province": "คบ.พระองค์ไชยานุชิต",
    "river": "คลองแสนแสบ"
  }, 
  {
    "name": "ปตร.กึ่งถาวรบึงเทพยา",
    "lat": 13.8035676010133, 
    "lon": 100.98496153842096,
    "office" : "สำนักชลประทานที่ 11",
    "province": "คบ.พระองค์ไชยานุชิต",
    "river": "คลองบึงเทพยา"
  }, 
  {
    "name": "ปตร.กึ่งถาวรปลื้มแผ้วผ้า",
    "lat": 13.821812173680595, 
    "lon": 101.08794799675813,
    "office" : "สำนักชลประทานที่ 11",
    "province": "คบ.พระองค์ไชยานุชิต",
    "river": "คลองปลื้มพับผ้า"
  }, 
  {
    "name": "ปตร.กึ่งถาวรโพรงกระถิ่น",
    "lat": 13.775030162686594, 
    "lon": 101.08517039729054,
    "office" : "สำนักชลประทานที่ 11",
    "province": "คบ.พระองค์ไชยานุชิต",
    "river": "คลองวังอ้ายเนื้อ"
  }, 
  {
    "name": "ปตร.กึ่งถาวรบึงบางใหญ่",
    "lat": 13.78315698500592, 
    "lon": 101.01550769449524,
    "office" : "สำนักชลประทานที่ 11",
    "province": "คบ.พระองค์ไชยานุชิต",
    "river": "คลองต้นไทร"
  }, 
  {
    "name": "ปตร.ปลายคลอง 17",
    "lat": 13.846954094277933, 
    "lon": 100.96822960383838,
    "office" : "สำนักชลประทานที่ 11",
    "province": "คบ.พระองค์ไชยานุชิต",
    "river": "คลองสิบเจ็ด"
  }, 
  {
    "name": "ปตร.คลองหลวงแพ่ง",
    "lat": 13.813020273642369, 
    "lon": 100.93743814395316,
    "office" : "สำนักชลประทานที่ 11",
    "province": "คบ.พระองค์ไชยานุชิต",
    "river": "คลองหลวงแพ่ง"
  }, 
  {
    "name": "ปตร.กลางคลองสาลี",
    "lat": 14.307327497544973, 
    "lon": 100.17677065391194,
    "office" : "สำนักชลประทานที่ 11",
    "province": "คบ.เจ้าเจ็ด-บางยี่หน",
    "river": "คลองสาลี"
  }, 
  {
    "name": "ปตร.ปลายคลองสาลี",
    "lat": 14.29160732543917, 
    "lon": 100.14503948314083,
    "office" : "สำนักชลประทานที่ 11",
    "province": "คบ.เจ้าเจ็ด-บางยี่หน",
    "river": "คลองสาลี"
  }, 
  {
    "name": "ปตร.คลิงศพเพลิง",
    "lat": 14.276415176231849, 
    "lon": 100.19038464582204,
    "office" : "สำนักชลประทานที่ 11",
    "province": "คบ.เจ้าเจ็ด-บางยี่หน",
    "river": "คลองส่งน้ำสาย 1 "
  }, 
  {
    "name": "ปตร.บ้านหงษ์",
    "lat": 14.37293500505203, 
    "lon": 100.20272008298963,
    "office" : "สำนักชลประทานที่ 11",
    "province": "คบ.เจ้าเจ็ด-บางยี่หน",
    "river": "แม่น้ำท่าจีน"
  }, 
  {
    "name": "ปตร.ดาบเงิน",
    "lat": 14.342492537810783,  
    "lon": 100.15273353978506,
    "office" : "สำนักชลประทานที่ 11",
    "province": "คบ.เจ้าเจ็ด-บางยี่หน",
    "river": "แม่น้ำท่าจีน"
  }, 
  {
    "name": "ปตร.ปากคลองสาลี",
    "lat": 14.338279321614724,   
    "lon": 100.23814634521312,
    "office" : "สำนักชลประทานที่ 11",
    "province": "คบ.เจ้าเจ็ด-บางยี่หน",
    "river": "คลองสาลี"
  }, 
  {
    "name": "ปตร.คลองญี่ปุ่นเหนือ",
    "lat": 14.274144828110591, 
    "lon": 100.24276995065388,
    "office" : "สำนักชลประทานที่ 11",
    "province": "คบ.เจ้าเจ็ด-บางยี่หน",
    "river": "คลองญี่ปุ่นเหนือ"
  }, 
  {
    "name": "ปตร.คลองขนมจีน",
    "lat": 14.317526230665111, 
    "lon": 100.38978213571605,
    "office" : "สำนักชลประทานที่ 11",
    "province": "คบ.เจ้าเจ็ด-บางยี่หน",
    "river": "คลองสามกอ"
  }, 
  {
    "name": "ปตร.ปากคลองสาย4",
    "lat": 14.315987131800618,  
    "lon": 100.3895999114369,
    "office" : "สำนักชลประทานที่ 11",
    "province": "คบ.เจ้าเจ็ด-บางยี่หน",
    "river": "คลองส่งน้ำสาย 4"
  }, 
  {
    "name": "ปตร.หนองอ้อ",
    "lat": 14.301823781878133, 
    "lon": 100.3700522806442,
    "office" : "สำนักชลประทานที่ 11",
    "province": "คบ.เจ้าเจ็ด-บางยี่หน",
    "river": "คลองหนองลำเจียก"
  }, 
  {
    "name": "ปตร.โคกหนองพล",
    "lat": 14.300784311235084,  
    "lon": 100.37236644686973,
    "office" : "สำนักชลประทานที่ 11",
    "province": "คบ.เจ้าเจ็ด-บางยี่หน",
    "river": "คลองหนองลำเจียก"
  }, 
  {
    "name": "ปตร.คลองทราย",
    "lat": 14.307103300849095,   
    "lon": 100.3882753970188,
    "office" : "สำนักชลประทานที่ 11",
    "province": "คบ.เจ้าเจ็ด-บางยี่หน",
    "river": "คลองส่งน้ำสาย 4"
  }, 
  {
    "name": "ปตร.คลองสาน ",
    "lat": 14.286153575385553, 
    "lon": 100.3598517511892,
    "office" : "สำนักชลประทานที่ 11",
    "province": "คบ.เจ้าเจ็ด-บางยี่หน",
    "river": "คลองสาน"
  }, 
  {
    "name": "ปตร.ปิ่นแก้ว",
    "lat": 14.23039999854881, 
    "lon": 100.34907991892712,
    "office" : "สำนักชลประทานที่ 11",
    "province": "คบ.เจ้าเจ็ด-บางยี่หน",
    "river": "คลองปื่นแก้ว"
  }, 
  {
    "name": "ปตร.อู่ตะเภา",
    "lat": 14.229270809664511, 
    "lon": 100.35328261098157,
    "office" : "สำนักชลประทานที่ 11",
    "province": "คบ.เจ้าเจ็ด-บางยี่หน",
    "river": "คลองอู้ตะเภา"
  }, 
  {
    "name": "ปตร.ปากคลองไผ่พระ",
    "lat": 14.214388930246042, 
    "lon": 100.41072344175096,
    "office" : "สำนักชลประทานที่ 11",
    "province": "คบ.เจ้าเจ็ด-บางยี่หน",
    "river": "คลองำผ่พระ"
  }, 
  {
    "name": "ปตร.ปลายคลองสาน",
    "lat": 14.161962266109027,  
    "lon": 100.35125523115175,
    "office" : "สำนักชลประทานที่ 11",
    "province": "คบ.เจ้าเจ็ด-บางยี่หน",
    "river": "คลองสาน"
  }, 
  {
    "name": "ปตร.ปลายคลองส่งน้ำสาย4",
    "lat": 14.157937750353174, 
    "lon": 100.38265476680117,
    "office" : "สำนักชลประทานที่ 11",
    "province": "คบ.เจ้าเจ็ด-บางยี่หน",
    "river": "คลองสาน"
  }, 
  {
    "name": "ปตร.คลองนายฉัตร",
    "lat": 14.156455033003725, 
    "lon": 100.40456267036826,
    "office" : "สำนักชลประทานที่ 11",
    "province": "คบ.เจ้าเจ็ด-บางยี่หน",
    "river": "คลองขนมจีน"
  }, 
  {
    "name": "ปตร.จระเข้คลีน",
    "lat": 14.181345256100983,  
    "lon": 100.21368893226871,
    "office" : "สำนักชลประทานที่ 11",
    "province": "คบ.เจ้าเจ็ด-บางยี่หน",
    "river": "คลองจระเข้ครีน"
  }, 
  {
    "name": "ปตร.ปลายคลองญี่ปุ่นเหนือ",
    "lat": 14.180175735853513, 
    "lon": 100.24459809643496,
    "office" : "สำนักชลประทานที่ 11",
    "province": "คบ.เจ้าเจ็ด-บางยี่หน",
    "river": "คลองญี่ปุ่น"
  }, 
  {
    "name": "ปตร.บางซ้าย(คลองกุ่ม)",
    "lat": 14.327789090467187, 
    "lon": 100.30831951089479,
    "office" : "สำนักชลประทานที่ 11",
    "province": "คบ.เจ้าเจ็ด-บางยี่หน",
    "river": "คลองกุ่ม"
  }, 
  {
    "name": "ปตร.บางแก",
    "lat": 14.212038450529208, 
    "lon": 100.4926194397668, 
    "office" : "สำนักชลประทานที่ 11",
    "province": "คบ.เจ้าเจ็ด-บางยี่หน",
    "river": "แม่น้ำน้้อย"
  }, 
  {
    "name": "ปตร.บางแขยง",
    "lat": 14.307553718687531, 
    "lon": 100.45251746846763, 
    "office" : "สำนักชลประทานที่ 11",
    "province": "คบ.เจ้าเจ็ด-บางยี่หน",
    "river": "แม่น้ำน้้อย"
  }, 
  {
    "name": "ปตร.ท่าช้าง",
    "lat": 14.307553718687531, 
    "lon": 100.45251746846763, 
    "office" : "สำนักชลประทานที่ 11",
    "province": "คบ.เจ้าเจ็ด-บางยี่หน",
    "river": "คลองขุนศรี"
  }, 
  {
    "name": "ปตร.เจ๊กไหล",
    "lat": 14.227650562805193,
    "lon": 100.44885396347416, 
    "office" : "สำนักชลประทานที่ 11",
    "province": "คบ.เจ้าเจ็ด-บางยี่หน",
    "river": "คลองบ่อสะแก"
  }, 
  {
    "name": "ปตร.ไม้ตรา",
    "lat": 14.15525286638699, 
    "lon": 100.48352623139708, 
    "office" : "สำนักชลประทานที่ 11",
    "province": "คบ.เจ้าเจ็ด-บางยี่หน",
    "river": "คลองเก่า"
  }, 
  {
    "name": "ปตร.สิงหนาท",
    "lat": 14.153223049109133, 
    "lon": 100.47395258275455, 
    "office" : "สำนักชลประทานที่ 11",
    "province": "คบ.เจ้าเจ็ด-บางยี่หน",
    "river": "คลองพระยาบรรลือ"
  }, 
  {
    "name": "ปตร.ยายส่อน",
    "lat": 13.802247385483593, 
    "lon": 100.39851659504002, 
    "office" : "สำนักชลประทานที่ 11",
    "province": "คบ.พระพิมล",
    "river": "คลองปลายบาง"
  }, 
  {
    "name": "ปตร.ฉิมพลี",
    "lat": 13.802797197939693, 
    "lon": 100.39272637581006, 
    "office" : "สำนักชลประทานที่ 11",
    "province": "คบ.พระพิมล",
    "river": "คลองมหาสวัสดิ์"
  }, 
  {
    "name": "ปตร.กลางคลอง ค.ทวีวัฒนา ",
    "lat": 13.836617706089005, 
    "lon": 100.31248654147618, 
    "office" : "สำนักชลประทานที่ 11",
    "province": "คบ.พระพิมล",
    "river": "คลองนราภิรมย์"
  }, 
  {
    "name": "ปตร.กลางคลอง ค.บางไทร",
    "lat": 13.896594172151216, 
    "lon": 100.37410907370771, 
    "office" : "สำนักชลประทานที่ 11",
    "province": "คบ.พระพิมล",
    "river": "คลองบางไทร"
  }, 
  {
    "name": "ปตร.บางใหญ่",
    "lat": 13.848097676879068, 
    "lon": 100.39320360663763, 
    "office" : "สำนักชลประทานที่ 11",
    "province": "คบ.พระพิมล",
    "river": "คลองบางใหญ่"
  }, 
  {
    "name": "ปตร.ปากคลองโต๊ะใหม่",
    "lat": 13.941046701626417, 
    "lon": 100.36829887201262, 
    "office" : "สำนักชลประทานที่ 11",
    "province": "คบ.พระพิมล",
    "river": "คอลงโต๊ะใหม่"
  }, 
  {
    "name": "ปตร.นายยอด",
    "lat": 13.918483919666171, 
    "lon": 100.39846084930801, 
    "office" : "สำนักชลประทานที่ 11",
    "province": "คบ.พระพิมล",
    "river": "คอลงโต๊ะใหม่"
  }, 
  {
    "name": "ปตร.นายจอน",
    "lat": 13.918684307552093, 
    "lon": 100.40634052372715, 
    "office" : "สำนักชลประทานที่ 11",
    "province": "คบ.พระพิมล",
    "river": "คลองผู้ใหญ่จอน"
  }, 
  {
    "name": "ปตร.บ้านกล้วย",
    "lat": 13.908950360821558, 
    "lon": 100.40784690404338, 
    "office" : "สำนักชลประทานที่ 11",
    "province": "คบ.พระพิมล",
    "river": "คลองบ้านกล้วย"
  }, 
  {
    "name": "ปตร.ประตูกลางคลองโต๊ะใหม่",
    "lat": 13.881816812218473, 
    "lon": 100.36256619402326, 
    "office" : "สำนักชลประทานที่ 11",
    "province": "คบ.พระพิมล",
    "river": "คอลงโต๊ะใหม่"
  }, 
  {
    "name": "ปตร.ปากคลองโต๊ะนุ้ย",
    "lat": 14.016404195488365, 
    "lon": 100.2975935316333, 
    "office" : "สำนักชลประทานที่ 11",
    "province": "คบ.พระพิมล",
    "river": "คลองขุนศรี"
  }, 
  {
    "name": "ปตร.ประตูปากคลองสถาพรพัฒนา",
    "lat": 14.004662557665997, 
    "lon": 100.26872428345689, 
    "office" : "สำนักชลประทานที่ 11",
    "province": "คบ.พระพิมล",
    "river": "คลองสิบศอก"
  }, 
  {
    "name": "ปตร.ปลายคลองขุนศรี",
    "lat": 13.994831321106602, 
    "lon": 100.29106558129162, 
    "office" : "สำนักชลประทานที่ 11",
    "province": "คบ.พระพิมล",
    "river": "คลองขุนศรี"
  }, 
  {
    "name": "ปตร.คลองลัดศรีนวล",
    "lat": 13.985968217389647, 
    "lon": 100.29506887782722, 
    "office" : "สำนักชลประทานที่ 11",
    "province": "คบ.พระพิมล",
    "river": "คลองลัดศรีนวล"
  }, 
  {
    "name": "ปตร.ปากคลองทวีวัฒนา",
    "lat": 13.976526803953476, 
    "lon": 100.3080250174155, 
    "office" : "สำนักชลประทานที่ 11",
    "province": "คบ.พระพิมล",
    "river": "คลองทวีวีฒนา"
  }, 
  {
    "name": "ปตร.ทวีวัฒนา",
    "lat": 13.976526803953476, 
    "lon": 100.3080250174155, 
    "office" : "สำนักชลประทานที่ 11",
    "province": "คบ.พระพิมล",
    "river": "คลองทวีวีฒนา"
  }, 
  {
    "name": "ปตร.ปลายคลองราษฎร์นิยม",
    "lat": 14.023387697322011,  
    "lon": 100.34245161485136, 
    "office" : "สำนักชลประทานที่ 11",
    "province": "คบ.พระพิมล",
    "river": "คลองทวีวีฒนา"
  }, 
  {
    "name": "ปตร.ปลายคลองลากฆ้อน",
    "lat": 13.960881283258693, 
    "lon": 100.35430731969973, 
    "office" : "สำนักชลประทานที่ 11",
    "province": "คบ.พระพิมล",
    "river": "คลองลากค้อน"
  }, 
  {
    "name": "ปตร.คลองมะสงค์",
    "lat": 13.955144125189376,  
    "lon": 100.34087387529557, 
    "office" : "สำนักชลประทานที่ 11",
    "province": "คบ.พระพิมล",
    "river": "คลองมะสง"
  }, 
  {
    "name": "ปตร.คลองสอง",
    "lat": 13.94851840427204, 
    "lon": 100.28844680852711, 
    "office" : "สำนักชลประทานที่ 11",
    "province": "คบ.พระพิมล",
    "river": "คลองสอง"
  }, 
  {
    "name": "ปตร.คลองสาม",
    "lat": 13.933979579195476, 
    "lon": 100.27574041541685, 
    "office" : "สำนักชลประทานที่ 11",
    "province": "คบ.พระพิมล",
    "river": "คลองสาม"
  }, 
  {
    "name": "ปตร.ประตูคลองเสนีวงษ์",
    "lat": 13.90987211744145, 
    "lon": 100.28192003166936, 
    "office" : "สำนักชลประทานที่ 11",
    "province": "คบ.พระพิมล",
    "river": "คลองมะสง"
  }, 
  {
    "name": "ปตร.ปากคลองปฏิรูป1 ",
    "lat": 13.82601652985067, 
    "lon": 100.25635715457177, 
    "office" : "สำนักชลประทานที่ 11",
    "province": "คบ.พระพิมล",
    "river": "คลองปฎิรูป"
  }, 
  {
    "name": "ปตร.ปากคลองปฏิรูป2 ",
    "lat": 13.826368974681523,
    "lon": 100.27312545712917, 
    "office" : "สำนักชลประทานที่ 11",
    "province": "คบ.พระพิมล",
    "river": "คลองปฎิรูป"
  }, 
  {
    "name": "ปตร.กำนันขาว",
    "lat": 13.825937480539137, 
    "lon": 100.26049293374177, 
    "office" : "สำนักชลประทานที่ 11",
    "province": "คบ.พระพิมล",
    "river": "คลองกำนันขาว"
  }, 
  {
    "name": "ปตร.สุคต(ด้านคลองมหาสวัสดิ์)",
    "lat": 13.805158677422407, 
    "lon": 100.2712450915565, 
    "office" : "สำนักชลประทานที่ 11",
    "province": "คบ.พระพิมล",
    "river": "คลองมหาสวัสดิ์"
  }, 
  {
    "name": "ปตร.คลองบางสะบ้า",
    "lat": 13.844136407863033,  
    "lon": 100.22731769298994, 
    "office" : "สำนักชลประทานที่ 11",
    "province": "คบ.พระพิมล",
    "river": "คลองบางสะบ้า"
  }, 
  {
    "name": "ปตร.สำโรง",
    "lat": 13.83813821834814, 
    "lon": 100.22748941758533, 
    "office" : "สำนักชลประทานที่ 11",
    "province": "คบ.พระพิมล",
    "river": "คลองสำโรง"
  }, 
  {
    "name": "ปตร.คลองโยง",
    "lat": 13.828808256664082, 
    "lon": 100.22757973305885, 
    "office" : "สำนักชลประทานที่ 11",
    "province": "คบ.พระพิมล",
    "river": "คลองโยง"
  }, 
  {
    "name": "ปตร.กระทุ่มเมือง",
    "lat": 13.82434588361278, 
    "lon": 100.22833257244841, 
    "office" : "สำนักชลประทานที่ 11",
    "province": "คบ.พระพิมล",
    "river": "คลองโยง"
  }, 
  {
    "name": "ปตร.คลองขุุดใหม่",
    "lat": 13.82137005099605, 
    "lon": 100.22798782382412, 
    "office" : "สำนักชลประทานที่ 11",
    "province": "คบ.พระพิมล",
    "river": "คลองโรงเจ"
  }, 
  {
    "name": "ปตร.คลองบางเก็ง",
    "lat": 13.815324426009946, 
    "lon": 100.22724002414563, 
    "office" : "สำนักชลประทานที่ 11",
    "province": "คบ.พระพิมล",
    "river": "แม่น้ำท่าจีน"
  }, 
  {
    "name": "ปตร.มหาสวัสดิ์",
    "lat": 13.811546228598589, 
    "lon": 100.22630127748847, 
    "office" : "สำนักชลประทานที่ 11",
    "province": "คบ.พระพิมล",
    "river": "แม่น้ำท่าจีน"
  }, 
  {
    "name": "ปตร.คลองลัดกลางทุ่ง",
    "lat": 13.86457706008397, 
    "lon": 100.2212555550431, 
    "office" : "สำนักชลประทานที่ 11",
    "province": "คบ.พระพิมล",
    "river": "คลองใหม่"
  }, 
  {
    "name": "ปตร.บางกระจัน",
    "lat": 13.85637050220148, 
    "lon": 100.22498706887201, 
    "office" : "สำนักชลประทานที่ 11",
    "province": "คบ.พระพิมล",
    "river": "คลองบางกระจัน"
  }, 
  {
    "name": "ปตร.บางไกลซ้อน",
    "lat": 13.851561309069352, 
    "lon": 100.22659437709991, 
    "office" : "สำนักชลประทานที่ 11",
    "province": "คบ.พระพิมล",
    "river": "คลองบางกระจัน"
  }, 
  {
    "name": "ปตร.บางบอน",
    "lat": 13.89921502067134, 
    "lon": 100.22002034723559, 
    "office" : "สำนักชลประทานที่ 11",
    "province": "คบ.พระพิมล",
    "river": "คลองบางบอน"
  }, 
  {
    "name": "ปตร.คลองบางแก้วฟ้า",
    "lat": 13.891811044770263, 
    "lon": 100.22346937384896, 
    "office" : "สำนักชลประทานที่ 11",
    "province": "คบ.พระพิมล",
    "river": "คลองบางแก้วฟ้า"
  }, 
  {
    "name": "ปตร.คลองตาอิน",
    "lat": 13.888615818332491, 
    "lon": 100.22445294386917, 
    "office" : "สำนักชลประทานที่ 11",
    "province": "คบ.พระพิมล",
    "river": "คลองตาอิน"
  }, 
  {
    "name": "ปตร.คลองเจ๊กก๋วย",
    "lat": 13.882004724883272,
    "lon": 100.22366807899648, 
    "office" : "สำนักชลประทานที่ 11",
    "province": "คบ.พระพิมล",
    "river": "คลองเจ็กก๋วย"
  }, 
  {
    "name": "ปตร.คลองปลาดุก",
    "lat": 13.875710207874931, 
    "lon": 100.21996667055221, 
    "office" : "สำนักชลประทานที่ 11",
    "province": "คบ.พระพิมล",
    "river": "คลองบางปลาดุก"
  }, 
  {
    "name": "ปตร.คลองทองหลาง",
    "lat": 13.946469897881252, 
    "lon": 100.216300219278, 
    "office" : "สำนักชลประทานที่ 11",
    "province": "คบ.พระพิมล",
    "river": "คลองบางมะเดื่อ"
  }, 
  {
    "name": "ปตร.ปลายคลองทองหลาง",
    "lat": 13.943869194312763, 
    "lon": 100.20555247584906, 
    "office" : "สำนักชลประทานที่ 11",
    "province": "คบ.พระพิมล",
    "river": "คลองทองหลาง"
  }, 
  {
    "name": "ปตร.คลองมะเดื่อ",
    "lat": 13.934255948790266, 
    "lon": 100.20505422568965, 
    "office" : "สำนักชลประทานที่ 11",
    "province": "คบ.พระพิมล",
    "river": "คลองมะเดื่อ"
  }, 
  {
    "name": "ปตร.มะดัน",
    "lat": 13.924532158988708, 
    "lon": 100.20900586192208, 
    "office" : "สำนักชลประทานที่ 11",
    "province": "คบ.พระพิมล",
    "river": "แม่น้ำท่าจีน"
  }, 
  {
    "name": "ปตร.คลองสวิตชาติ",
    "lat": 13.92278676016782, 
    "lon": 100.21364120289667, 
    "office" : "สำนักชลประทานที่ 11",
    "province": "คบ.พระพิมล",
    "river": "คลองสวิตชาติ"
  }, 
  {
    "name": "ปตร.คลองบางขโมย",
    "lat": 13.91732807325607, 
    "lon": 100.2164409852985, 
    "office" : "สำนักชลประทานที่ 11",
    "province": "คบ.พระพิมล",
    "river": "แม่น้ำท่าจีน"
  }, 
  {
    "name": "ปตร.คลองบางควาย",
    "lat": 13.914253270679106, 
    "lon": 100.21555694889165, 
    "office" : "สำนักชลประทานที่ 11",
    "province": "คบ.พระพิมล",
    "river": "คลองบางควาย"
  }, 
  {
    "name": "ปตร.ลำพญา",
    "lat": 13.951980287772493, 
    "lon": 100.21300553677294, 
    "office" : "สำนักชลประทานที่ 11",
    "province": "คบ.พระพิมล",
    "river": "คลองนราภิรมย์"
  }, 
  {
    "name": "ปตร.พระพิมล",
    "lat": 14.027332676413682, 
    "lon": 100.17896675764236 , 
    "office" : "สำนักชลประทานที่ 11",
    "province": "คบ.พระพิมล",
    "river": "คลองพระพิมล"
  }, 
  {
    "name": "ปตร.คลองบางยุง",
    "lat": 14.027332676413682, 
    "lon": 100.17896675764236 , 
    "office" : "สำนักชลประทานที่ 11",
    "province": "คบ.พระพิมล",
    "river": "คลองพระพิมล"
  }, 
  {
    "name": "ปตร.บางภาษี",
    "lat": 13.978502340969827, 
    "lon": 100.19937242196522, 
    "office" : "สำนักชลประทานที่ 11",
    "province": "คบ.พระพิมล",
    "river": "คลองบางภาษี"
  }, 
  {
    "name": "ปตร.คลองนกกระทุง",
    "lat": 13.978502340969827, 
    "lon": 100.19937242196522, 
    "office" : "สำนักชลประทานที่ 11",
    "province": "คบ.พระพิมล",
    "river": "คลองบางภาษี"
  }, 
  {
    "name": "ปตร.ประตูกลางคลองทรงกระเทียม",
    "lat": 14.014952262068018, 
    "lon": 100.25671833435406, 
    "office" : "สำนักชลประทานที่ 11",
    "province": "คบ.พระพิมล",
    "river": "คลองพระพิมล"
  }, 
  {
    "name": "ปตร.บางเตย(ด้านคลองมหาสวัสดิ์)",
    "lat": 13.804028092268723, 
    "lon": 100.28546380902164, 
    "office" : "สำนักชลประทานที่ 11",
    "province": "คบ.ภาษีเจริญ",
    "river": "คลองบางเตย"
  }, 
  {
    "name": "ปตร.สามบาท(ด้านคลองมหาสวัสดิ์)",
    "lat": 13.802436309568956,  
    "lon": 100.308068829881, 
    "office" : "สำนักชลประทานที่ 11",
    "province": "คบ.ภาษีเจริญ",
    "river": "คลองมหาสวัสดิ์"
  }, 
  {
    "name": "ปตร.บ่อยื่ม",
    "lat": 13.808914733215904, 
    "lon": 100.23398342678335, 
    "office" : "สำนักชลประทานที่ 11",
    "province": "คบ.ภาษีเจริญ",
    "river": "คลองมหาสวัสดิ์"
  }, 
  {
    "name": "ปตร.ลัดงิ้วราย",
    "lat": 13.79414291294588, 
    "lon": 100.22847546786035, 
    "office" : "สำนักชลประทานที่ 11",
    "province": "คบ.ภาษีเจริญ",
    "river": "คลองลัดงิ้วราย"
  }, 
  {
    "name": "ปตร.กร่าง",
    "lat": 13.794410601524898, 
    "lon": 100.23340450209908, 
    "office" : "สำนักชลประทานที่ 11",
    "province": "คบ.ภาษีเจริญ",
    "river": "คลองกร่าง"
  }, 
  {
    "name": "ปตร.พิกุล",
    "lat": 13.793349508040627, 
    "lon": 100.23606658154378, 
    "office" : "สำนักชลประทานที่ 11",
    "province": "คบ.ภาษีเจริญ",
    "river": "คลองพิกุล"
  }, 
  {
    "name": "ปตร.ปลายคลองแนวลิขิต",
    "lat": 13.598238970282464, 
    "lon": 100.26368420542562, 
    "office" : "สำนักชลประทานที่ 11",
    "province": "คบ.ภาษีเจริญ",
    "river": "คลองแนวลิขิต"
  }, 
  {
    "name": "ปตร.คลองอ้อมตัน",
    "lat": 13.573786588099729, 
    "lon": 100.23064021613773, 
    "office" : "สำนักชลประทานที่ 11",
    "province": "คบ.ภาษีเจริญ",
    "river": "คลองโอ้มโรงหีบ"
  }, 
  {
    "name": "ปตร.คลองแค",
    "lat": 13.558206778456675, 
    "lon": 100.3068763642012, 
    "office" : "สำนักชลประทานที่ 11",
    "province": "คบ.ภาษีเจริญ",
    "river": "คลองมหาชัย"
  }, 
  {
    "name": "ปตร.คลองตาขน",
    "lat": 13.55498934905812, 
    "lon": 100.30157797003645, 
    "office" : "สำนักชลประทานที่ 11",
    "province": "คบ.ภาษีเจริญ",
    "river": "คลองมหาชัย"
  }, 
  {
    "name": "ปตร.คลองสหกรณ์สาย 3 ",
    "lat": 13.548517130238814, 
    "lon": 100.34917192282646, 
    "office" : "สำนักชลประทานที่ 11",
    "province": "คบ.ภาษีเจริญ",
    "river": "คลองสหกรณ์สาย 3"
  }, 
  {
    "name": "ปตร.คลองพระราม(คลองหลวง)",
    "lat": 13.54226453288221, 
    "lon": 100.31341209893506, 
    "office" : "สำนักชลประทานที่ 11",
    "province": "คบ.ภาษีเจริญ",
    "river": "คลองหลวงสหกรณ์"
  }, 
  {
    "name": "ปตร.สหกรณ์สาย 4",
    "lat": 13.558767262114632, 
    "lon": 100.36494347807229, 
    "office" : "สำนักชลประทานที่ 11",
    "province": "คบ.ภาษีเจริญ",
    "river": "คลองสหกรณ์สาย 4"
  }, 
  {
    "name": "ปตร.คลองโคกขามใหม่",
    "lat": 13.555508566588587, 
    "lon": 100.36284671970311, 
    "office" : "สำนักชลประทานที่ 11",
    "province": "คบ.ภาษีเจริญ",
    "river": "คลองโคกขามขุดใหม่"
  }, 
  {
    "name": "ปตร.คลองวัดเจษฏาราม",
    "lat": 13.551257469218612, 
    "lon": 100.29331442797951, 
    "office" : "สำนักชลประทานที่ 11",
    "province": "คบ.ภาษีเจริญ",
    "river": "คลองมหาชัย"
  }, 
  {
    "name": "ปตร.คลองวัดเจษฏาราม",
    "lat": 13.548874501425574, 
    "lon": 100.34946416989243, 
    "office" : "สำนักชลประทานที่ 11",
    "province": "คบ.ภาษีเจริญ",
    "river": "คลองเจ็ก"
  }, 
  {
    "name": "ปตร.อ่อนใจ",
    "lat": 13.659540365777454, 
    "lon": 100.26533250261434, 
    "office" : "สำนักชลประทานที่ 11",
    "province": "คบ.ภาษีเจริญ",
    "river": "แม่น้ำท่าจีน"
  }, 
  {
    "name": "ปตร.กร่ะทุ่มแบน",
    "lat": 13.657781381381783, 
    "lon": 100.26351638469788, 
    "office" : "สำนักชลประทานที่ 11",
    "province": "คบ.ภาษีเจริญ",
    "river": "แม่น้ำท่าจีน"
  }, 
  {
    "name": "ปตร.โรงสี",
    "lat": 13.655148185026977, 
    "lon": 100.25821591333514, 
    "office" : "สำนักชลประทานที่ 11",
    "province": "คบ.ภาษีเจริญ",
    "river": "แม่น้ำท่าจีน"
  }, 
  {
    "name": "ปตร.เกาะโพธิ์",
    "lat": 13.648356509924774, 
    "lon": 100.24440625911032, 
    "office" : "สำนักชลประทานที่ 11",
    "province": "คบ.ภาษีเจริญ",
    "river": "คลองเกาะโพธิ์"
  }, 
  {
    "name": "ปตร.นายฮวด",
    "lat": 13.64047346377312, 
    "lon": 100.23422204751743, 
    "office" : "สำนักชลประทานที่ 11",
    "province": "คบ.ภาษีเจริญ",
    "river": "แม่น้ำท่าจีน"
  }, 
  {
    "name": "ปตร.ไหหลำ",
    "lat": 13.620030389986356, 
    "lon": 100.23207312065044, 
    "office" : "สำนักชลประทานที่ 11",
    "province": "คบ.ภาษีเจริญ",
    "river": "คลองไหหลำ"
  }, 
  {
    "name": "ปตร.บางกรูด",
    "lat": 13.616684968359678, 
    "lon": 100.22991918018099, 
    "office" : "สำนักชลประทานที่ 11",
    "province": "คบ.ภาษีเจริญ",
    "river": "คลองบางกรูด"
  }, 
  {
    "name": "ปตร.ตาเพชร",
    "lat": 13.609016065089168, 
    "lon": 100.23036486421243, 
    "office" : "สำนักชลประทานที่ 11",
    "province": "คบ.ภาษีเจริญ",
    "river": "คลองตาเพชร"
  }, 
  {
    "name": "ปตร.ปากคลองส่งน้ำสายน้ำท่าล้อ-อู่ทอง",
    "lat": 13.988017749240381,  
    "lon": 99.56942093761207, 
    "office" : "สำนักชลประทานที่ 13",
    "province": "คป.กาญจนบุรี",
    "river": "แม่น้ำแม่กลอง"
  }, 
  {
    "name": "ปตร.คลองเหมืองนา",
    "lat": 13.899264555945338, 
    "lon": 100.20951292902782, 
    "office" : "สำนักชลประทานที่ 13",
    "province": "คป.นนครปฐม",
    "river": "คลองบางพระ"
  }, 
  {
    "name": "ปตร.คลองบ้านกล้วย",
    "lat": 13.819667394880979, 
    "lon": 100.1947933513382 , 
    "office" : "สำนักชลประทานที่ 13",
    "province": "คป.นนครปฐม",
    "river": "แม่น้ำท่าจีน"
  }, 
  {
    "name": "ปตร.บางหัวหญ้า",
    "lat": 13.300605582419916, 
    "lon": 99.85344631444354, 
    "office" : "สำนักชลประทานที่ 13",
    "province": "คป.สมุทรสงคราม",
    "river": "คลองยี่สารเก่า"
  }, 
  {
    "name": "ปตร. กม.3+357 ของคันกั้นน้ำเค็มสายสถานีรถไฟบางเค็ม - แพรกหนามน้ำแดง (คลองวัว)",
    "lat": 13.321771930639262, 
    "lon": 99.86713251173374, 
    "office" : "สำนักชลประทานที่ 13",
    "province": "คป.สมุทรสงคราม",
    "river": "คลองวัว"
  }, 
  {
    "name": "ปตร. กม.3+580 ของคันกั้นน้ำเค็มแพรกหนามแดง (คลองแพรกหนามแดง)",
    "lat": 13.322450357602795, 
    "lon": 99.87361499594466, 
    "office" : "สำนักชลประทานที่ 13",
    "province": "คป.สมุทรสงคราม",
      "river": "คลองแพรกหนามแดง"
  }, 
  {
    "name": "ปตร. กม.3+040 ของคันกั้นน้ำเค็มแพรกหนามแดง (คลองสัมงา)",
    "lat": 13.324004132717336, 
    "lon": 99.87624442991925, 
    "office" : "สำนักชลประทานที่ 13",
    "province": "คป.สมุทรสงคราม",
    "river": "คลองสัมงา"
  }, 
  {
    "name": "ปตร. กม.0+190 ของคันกั้นน้ำเค็มสายแพรกหนามแดง (ผีหลอก)",
    "lat": 13.343930328652341, 
    "lon": 99.88349344200327, 
    "office" : "สำนักชลประทานที่ 13",
    "province": "คป.สมุทรสงคราม",
    "river": "คลองยี่สารเก่า"
  }, 
  {
    "name": "ปตร. กม.8+857 ของคันกั้นน้ำเค็มสายบางเค็ม - วัดพวงมาลัย (คลองตากิม)  ",
    "lat": 13.347427719224925, 
    "lon": 99.89362630674229, 
    "office" : "สำนักชลประทานที่ 13",
    "province": "คป.สมุทรสงคราม",
    "river": "คลองตากิม"
  }, 
  {
    "name": "ปตร. กม.9+980 ของคันกั้นน้ำเค็มสายบางเค็ม - วัดพวงมาลัย (คลองสะพานหัน)",
    "lat": 13.349823349838429, 
    "lon": 99.90336973077584, 
    "office" : "สำนักชลประทานที่ 13",
    "province": "คป.สมุทรสงคราม",
    "river": "คลองสะพานหัน"
  }, 
  {
    "name": "ปตร. กม.10+765 ของคันกั้นน้ำเค็มสายบางเค็ม - วัดพวงมาลัย (คลองขุดสมบูรณ์)",
    "lat": 13.351466131897313, 
    "lon": 99.90953605441882, 
    "office" : "สำนักชลประทานที่ 13",
    "province": "คป.สมุทรสงคราม",
    "river": "คลองขุดสมบูรณ์"
  }, 
  {
    "name": "ปตร. กม.11+096 ของคันกั้นน้ำเค็มสายบางเค็ม - วัดพวงมาลัย (คลองเจ็ก)",
    "lat": 13.352289664377315,  
    "lon": 99.91351313874941, 
    "office" : "สำนักชลประทานที่ 13",
    "province": "คป.สมุทรสงคราม",
    "river": "คลองเจ็ก"
  }, 
  {
    "name": "ปตร. กม.14+134 ของคันกั้นน้ำเค็มสายอัมพวา (คลองยายเจิม)",
    "lat": 13.35856195298341, 
    "lon": 99.9311620458643, 
    "office" : "สำนักชลประทานที่ 13",
    "province": "คป.สมุทรสงคราม",
    "river": "คลองยายเจิม"
  },  
  {
    "name": "ปตร. กม.14+134 ของคันกั้นน้ำเค็มสายอัมพวา (คลองขุดเล็ก)",
    "lat": 13.367934211646151, 
    "lon": 99.93609770655164, 
    "office" : "สำนักชลประทานที่ 13",
    "province": "คป.สมุทรสงคราม",
    "river": "คลองขุด"
  }, 
  {
    "name": "ปตร. กม.14+134 ของคันกั้นน้ำเค็มสายอัมพวา (คลองลำประโดง)",
    "lat": 13.376050770355992, 
    "lon": 99.93879910905133, 
    "office" : "สำนักชลประทานที่ 13",
    "province": "คป.สมุทรสงคราม",
    "river": "คลองลำประโดง"
  }, 
  {
    "name": "ปตร.ปากคลองเชื่อมคลองส่งสายใหญ่ฝั่งซ้าย",
    "lat": 13.982023764669815, 
    "lon": 99.63065982602235, 
    "office" : "สำนักชลประทานที่ 13",
    "province": "คบ.แม่กลอง",
    "river": "คลองแม่กลอง"
  }, 
  {
    "name": "ปตร.ปากคลองส่งน้ำ 1 ซ้าย (1L)",
    "lat": 13.981202407319113, 
    "lon": 99.63059589608632, 
    "office" : "สำนักชลประทานที่ 13",
    "province": "คบ.แม่กลอง",
    "river": "คลองแม่กลอง"
  }, 
  {
    "name": "ปตร.ท่าม่วง",
    "lat": 13.972037395293148, 
    "lon": 99.6283343443862, 
    "office" : "สำนักชลประทานที่ 13",
    "province": "คบ.แม่กลอง",
    "river": "แม่น้ำแม่กลอง"
  }, 
  {
    "name": "ปตร.ปากคลองผันน้ำจรเข้สามพัน",
    "lat": 13.971954718476832, 
    "lon": 99.62867407967677, 
    "office" : "สำนักชลประทานที่ 13",
    "province": "คบ.แม่กลอง",
    "river": "แม่น้ำแม่กลอง"
  }, 
  {
    "name": "ปตร.ปากคลองส่งน้ำ 1 ขวา (1R)",
    "lat": 13.963997551338684, 
    "lon": 99.59124062366843, 
    "office" : "สำนักชลประทานที่ 13",
    "province": "คบ.แม่กลอง",
    "river": "แม่น้ำแม่กลอง"
  }, 
  {
    "name": "ปตร.ปากคลอง กม.0+020 คลองส่งน้ำ 11ซ้าย",
    "lat": 13.734155017212375, 
    "lon": 99.85318569496022, 
    "office" : "สำนักชลประทานที่ 13",
    "province": "คบ.ราชบุรีฝั่งซ้าย",
    "river": "คลองส่งน้ำ 11ซ้าย"
  }, 
  {
    "name": "ปตร.คลองร.ตาคต-ดำเนินสะดวก",
    "lat": 13.729115380573415, 
    "lon": 99.84959373180332, 
    "office" : "สำนักชลประทานที่ 13",
    "province": "คบ.ราชบุรีฝั่งซ้าย",
    "river": "คลองตาคต"
  }, 
  {
    "name": "ปตร.คลองบ้านใหม่ กม.0+523",
    "lat": 13.686786483483779, 
    "lon": 99.83404524279109, 
    "office" : "สำนักชลประทานที่ 13",
    "province": "คบ.ราชบุรีฝั่งซ้าย",
    "river": "คลองบ้านใหม่"
  }, 
  {
    "name": "ปตร.ปากคลอง กม.0+010 คลองส่งน้ำ 12 ซ้าย",
    "lat": 13.680599136407112, 
    "lon": 99.85232324360854, 
    "office" : "สำนักชลประทานที่ 13",
    "province": "คบ.ราชบุรีฝั่งซ้าย",
    "river": "คลองส่งน้ำ 12 ซ้าย"
  }, 
  {
    "name": "ปตร.ปากคลอง กม.0+010 คลองส่งน้ำ 1ขวา-12ซ้าย",
    "lat": 13.675193818518663, 
    "lon": 99.86332632361996, 
    "office" : "สำนักชลประทานที่ 13",
    "province": "คบ.ราชบุรีฝั่งซ้าย",
    "river": "คลองส่งน้ำ 1ขวา-12ซ้าย"
  }, 
  {
    "name": "ปตร.กลางคลอง กม.3+400 คลองส่งน้ำ 12 ซ้าย",
    "lat": 13.666879368706045, 
    "lon": 99.88027977306386, 
    "office" : "สำนักชลประทานที่ 13",
    "province": "คบ.ราชบุรีฝั่งซ้าย",
    "river": "คลองส่งน้ำ 12 ซ้าย"
   }, 
  {
    "name": "ปตร.ปากคลอง กม.0+010 คลองส่งน้ำ 2ขวา-12ซ้าย",
    "lat": 13.666961899854435, 
    "lon": 99.87991397443116, 
    "office" : "สำนักชลประทานที่ 13",
    "province": "คบ.ราชบุรีฝั่งซ้าย",
    "river": "คลองส่งน้ำ 2ขวา-12ซ้าย"
   }, 
  {
    "name": "ปตร.กลางคลอง กม.1+620 คลองส่งน้ำ 1ขวา-1ซ้าย-12ซ้าย",
    "lat": 13.673529116262454, 
    "lon": 99.89968472425895, 
    "office" : "สำนักชลประทานที่ 13",
    "province": "คบ.ราชบุรีฝั่งซ้าย",
    "river": "คลองส่งน้ำ 1ขวา-1ซ้าย-12ซ้าย"
   }, 
  {
    "name": "ปตร.กลางคลอง (ท่อลอดถนน) กม.2+720 คลองส่งน้ำ 2ขวา 12ซ้าย",
    "lat": 13.643701245958814, 
    "lon": 99.87554337133189, 
    "office" : "สำนักชลประทานที่ 13",
    "province": "คบ.ราชบุรีฝั่งซ้าย",
    "river": "คลองส่งน้ำ 2ขวา 12ซ้าย"
   }, 
  {
    "name": "ปตร.กลางคลอง กม.4+420 คลองส่งน้ำ 2ขวา-12ซ้าย",
    "lat": 13.634757880225363, 
    "lon": 99.86465113373471, 
    "office" : "สำนักชลประทานที่ 13",
    "province": "คบ.ราชบุรีฝั่งซ้าย",
    "river": "คลองส่งน้ำ 2ขวา 12ซ้าย"
   }, 
  {
    "name": "ปตร.ปลายคลอง กม.62+320 คลองส่งน้ำสายใหญ่ฝั่งซ้าย",
    "lat": 13.60767149924225, 
    "lon": 99.81756634942512, 
    "office" : "สำนักชลประทานที่ 13",
    "province": "คบ.ราชบุรีฝั่งซ้าย",
    "river": "คลองส่งน้ำสายใหญ่ฝั่งซ้าย"
   }, 
  {
    "name": "ปตร.คลองท่อ กม.0+050",
    "lat": 13.610471525071421, 
    "lon": 99.80298589175352, 
    "office" : "สำนักชลประทานที่ 13",
    "province": "คบ.ราชบุรีฝั่งซ้าย",
    "river": "แม่น้ำแม่กลอง"
   }, 
  {
    "name": "ปตร.ปลายคลอง กม. 1+913.04 คลองส่งน้ำ 1ซ้าย - 12ซ้าย",
    "lat": 13.726161681328906,  
    "lon": 99.91175452279505, 
    "office" : "สำนักชลประทานที่ 13",
    "province": "คบ.ราชบุรีฝั่งซ้าย",
    "river": "แม่น้ำแม่กลอง"
   }, 
  {
    "name": "ปตร.กลางคลอง กม.6+600 คลองส่งน้ำ 11ซ้าย",
    "lat": 13.708460896922988, 
    "lon": 99.90458960225388, 
    "office" : "สำนักชลประทานที่ 13",
    "province": "คบ.ราชบุรีฝั่งซ้าย",
    "river": "คลองส่งน้ำ 11ซ้าย"
   }, 
  {
    "name": "ปตร.กลางคลอง กม.9+700 คลองส่งน้ำ 11ซ้าย",
    "lat": 13.70643251818186,  
    "lon": 99.90458960225388, 
    "office" : "สำนักชลประทานที่ 13",
    "province": "คบ.ราชบุรีฝั่งซ้าย",
    "river": "คลองส่งน้ำ 11ซ้าย"
   }, 
  {
    "name": "ปตร.ปลายคลอง กม.12+020 คลองส่งน้ำ 11ซ้าย",
    "lat": 13.698838597995154, 
    "lon": 99.95149838026545, 
    "office" : "สำนักชลประทานที่ 13",
    "province": "คบ.ราชบุรีฝั่งซ้าย",
    "river": "คลองส่งน้ำ 11ซ้าย"
   }, 
  {
    "name": "ปตร.กลางคลอง กม.2+500 คลอง ร.1ซ้าย ตาคต - ดำเนินสะดวก (บ้านโรง)",
    "lat": 13.69523362969874, 
    "lon": 99.9582320222305, 
    "office" : "สำนักชลประทานที่ 13",
    "province": "คบ.ราชบุรีฝั่งซ้าย",
    "river": "คลองขุดอบเข่ง"
   }, 
  {
    "name": "ปตร.วังเย็น กม.25+888 คลองระบายน้ำสายใหญ่ตาคต-ดำเนินสะดวก",
    "lat": 13.698867002415884, 
    "lon": 99.91488000064552, 
    "office" : "สำนักชลประทานที่ 13",
    "province": "คบ.ราชบุรีฝั่งซ้าย",
    "river": "คลองบางแพ"
   }, 
  {
    "name": "ปตร.ปลายคลอง กม.8+820 คลองส่งน้ำ 1ซ้าย-12ซ้าย",
    "lat": 13.676851626412464, 
    "lon": 99.93587923365324, 
    "office" : "สำนักชลประทานที่ 13",
    "province": "คบ.ราชบุรีฝั่งซ้าย",
    "river": "คลองส่งน้ำ 1ซ้าย-12ซ้าย"
   }, 
  {
    "name": "ปตร.กลางคลอง กม.6+530 คลองส่งน้ำ 12 ซ้าย",
    "lat": 13.648736105955388, 
    "lon": 99.89962239014963, 
    "office" : "สำนักชลประทานที่ 13",
    "province": "คบ.ราชบุรีฝั่งซ้าย",
    "river": "คลองส่งน้ำ 12 ซ้าย"
   }, 
  {
    "name": "ปตร.กลางคลอง กม.6+530 คลองส่งน้ำ 12 ซ้าย",
    "lat": 13.569325837918937, 
    "lon": 99.89848055557295, 
    "office" : "สำนักชลประทานที่ 13",
    "province": "คบ.ราชบุรีฝั่งซ้าย",
    "river": "คลองแพงควาย"
   }, 
  {
    "name": "ปตร.ปากคลอง กม.0+050 คลองยายเรียน",
    "lat": 13.564516720743248, 
    "lon": 99.90020844896922, 
    "office" : "สำนักชลประทานที่ 13",
    "province": "คบ.ราชบุรีฝั่งซ้าย",
    "river": "คลองยายเรียน"
   }, 
  {
    "name": "ปตร.ปากคลอง กม.0+050 คลองปู่เจริญ",
    "lat": 13.561084470959281, 
    "lon": 99.90846495892036, 
    "office" : "สำนักชลประทานที่ 13",
    "province": "คบ.ราชบุรีฝั่งซ้าย",
    "river": "คลองปู่เจริญ"
   }, 
  {
    "name": "ปตร.กลางคลอง กม.9+500 คลองขุดลัดราชบุรี",
    "lat": 13.547632655282198, 
    "lon": 99.87957403431778, 
    "office" : "สำนักชลประทานที่ 13",
    "province": "คบ.ราชบุรีฝั่งซ้าย",
    "river": "คลองขุดลัดราชบุรี"
   }, 
  {
    "name": "ปตร.กลางคลอง กม.2+700 (ฝั่งซ้าย) คลองระบายน้ำสายใหญ่บางป่า",
    "lat": 13.549121817268265, 
    "lon": 99.86980416276033, 
    "office" : "สำนักชลประทานที่ 13",
    "province": "คบ.ราชบุรีฝั่งซ้าย",
    "river": "คลองระบายน้ำสายใหญ่บางป่า"
   }, 
  {
    "name": "ปตร.กลางคลอง กม.2+700 (ฝั่งขวา) คลองระบายน้ำสายใหญ่บางป่า",
    "lat": 13.549326941517942, 
    "lon": 99.8684737858809, 
    "office" : "สำนักชลประทานที่ 13",
    "province": "คบ.ราชบุรีฝั่งซ้าย",
    "river": "คลองระบายน้ำสายใหญ่บางป่า"
   }, 
  {
    "name": "ปตร.คลองลาด กม.0+300 คลองลาด",
    "lat": 13.5333608067873, 
    "lon": 99.89208498121218, 
    "office" : "สำนักชลประทานที่ 13",
    "province": "คบ.ราชบุรีฝั่งซ้าย",
    "river": "คลองลาด"
   }, 
  {
    "name": "ปตร.คลองมะเดื่อ กม.0+020",
    "lat": 13.532601338181818, 
    "lon": 99.90165856610746, 
    "office" : "สำนักชลประทานที่ 13",
    "province": "คบ.ราชบุรีฝั่งซ้าย",
    "river": "คลองมะเดื่อ"
   }, 
  {
    "name": "ปตร.แพงพวย กม.0+200 คลองแพงพวย",
    "lat": 13.532965048061685, 
    "lon": 99.90165856610746, 
    "office" : "สำนักชลประทานที่ 13",
    "province": "คบ.ราชบุรีฝั่งซ้าย",
    "river": "คลองแพงพวย"
   }, 
  {
    "name": "ปตร.แพงพวย กม.0+200 คลองแพงพวย",
    "lat": 13.532965048061685, 
    "lon": 99.90165856610746, 
    "office" : "สำนักชลประทานที่ 13",
    "province": "คบ.ราชบุรีฝั่งซ้าย",
    "river": "คลองแพงพวย"
   }, 
  {
    "name": "ปตร.กลางคลองขุดลัดราชบุรี กม.5+200",
    "lat": 13.545537316951965, 
    "lon": 99.91369292292555, 
    "office" : "สำนักชลประทานที่ 13",
    "province": "คบ.ราชบุรีฝั่งซ้าย",
    "river": "คลองขุดลัดราชบุรี"
   }, 
  {
    "name": "ปตร.กลางคลอง กม.15+540 คลองระบายน้ำสายใหญ่ตาคต-ดำเนินสะดวก  ",
    "lat": 13.645996597997698, 
    "lon": 99.95330556565607, 
    "office" : "สำนักชลประทานที่ 13",
    "province": "คบ.ราชบุรีฝั่งซ้าย",
    "river": "คลองระบายน้ำสายใหญ่ตาคต-ดำเนินสะดวก"
   }, 
  {
    "name": "ปตร.กลางคลอง กม.8+360 คลองระบายน้ำสายใหญ่ตาคต-ดำเนินสะดวก",
    "lat": 13.600724839338184, 
    "lon": 99.97295116341755, 
    "office" : "สำนักชลประทานที่ 13",
    "province": "คบ.ราชบุรีฝั่งซ้าย",
    "river": "คลองระบายน้ำสายใหญ่ตาคต-ดำเนินสะดวก"
   }, 
  {
    "name": "ปตร.กลางคลอง กม.3+500 คลองร.ตาคต-ดำเนินสะดวก (แช่ไห)",
    "lat": 13.577167627194978, 
    "lon": 100.00238293086296, 
    "office" : "สำนักชลประทานที่ 13",
    "province": "คบ.ราชบุรีฝั่งซ้าย",
    "river": "คลองร.ตาคต-ดำเนินสะดวก"
   }, 
  {
    "name": "ปตร.กลางคลองระบายน้ำ กม.20+800 คลองร.ตาคต-ดำเนินสะดวก(ดอนเซ่ง)",
    "lat": 13.681846423675148, 
    "lon": 99.94266031522704, 
    "office" : "สำนักชลประทานที่ 13",
    "province": "คบ.ราชบุรีฝั่งซ้าย",
    "river": "คลองดอนเซ่ง"
   }, 
  {
    "name": "ปตร.สายใหญ่ตาคต-ดำเนินสะดวก กม.20+800",
    "lat": 13.681641684063983, 
    "lon": 99.94278062286445, 
    "office" : "สำนักชลประทานที่ 13",
    "province": "คบ.ราชบุรีฝั่งซ้าย",
    "river": "คลองดอนเซ่ง"
   }, 
  {
    "name": "ปตร. ปากคลองส่งน้ำ 16ซ้าย - 1ขวา กม.74+550",
    "lat": 13.448152802404213, 
    "lon": 99.78543997502645, 
    "office" : "สำนักชลประทานที่ 13",
    "province": "คบ.ราชบุรีฝั่งขวา",
    "river": "คลองส่งน้ำ 16ซ้าย - 1ขวา"
   }, 
  {
    "name": "ปตร. กลางคลองส่งน้ำสายใหญ่ 1 ขวา กม.77+500",
    "lat": 13.425296247860262, 
    "lon": 99.77666217809238, 
    "office" : "สำนักชลประทานที่ 13",
    "province": "คบ.ราชบุรีฝั่งขวา",
    "river": "คลองส่งน้ำสายใหญ่ 1 ขวา"
   }, 
  {
    "name": "ปตร.กลางคลองส่งน้ำสายใหญ่ 1 ขวา กม.91+000",
    "lat": 13.332293812644894, 
    "lon": 99.7994499890667, 
    "office" : "สำนักชลประทานที่ 13",
    "province": "คบ.ราชบุรีฝั่งขวา",
    "river": "คลองห้วยโรง"
   }, 
  {
    "name": "ปตร.ปากคลอง 20 ซ้าย - 1 ขวา กม.91+206",
    "lat": 13.330156133863227, 
    "lon": 99.79869366295549  , 
    "office" : "สำนักชลประทานที่ 13",
    "province": "คบ.ราชบุรีฝั่งขวา",
    "river": "คลอง 20 ซ้าย - 1 ขวา"
   }, 
  {
    "name": "ปตร.กลางคลองส่งน้ำสายใหญ่ 1 ขวา กม.97+200",
    "lat": 13.284855915740062,
    "lon": 99.81406476139169  , 
    "office" : "สำนักชลประทานที่ 13",
    "province": "คบ.ราชบุรีฝั่งขวา",
    "river": "คลองส่งน้ำสายใหญ่ 1 ขวา"
   }, 
  {
    "name": "ปตร.ปากคลอง 22 ซ้าย - 1 ขวา กม.104+897",
    "lat": 13.284855915740062,
    "lon": 99.81406476139169  , 
    "office" : "สำนักชลประทานที่ 13",
    "province": "คบ.ราชบุรีฝั่งขวา",
    "river": "คลอง 22 ซ้าย - 1 ขวา"
   }, 
  {
    "name": "ปตร.ปากคลอง 24ซ้าย - 1ขวา กม.114+770",
    "lat": 13.132443645063422, 
    "lon": 99.82793730715994, 
    "office" : "สำนักชลประทานที่ 13",
    "province": "คบ.ราชบุรีฝั่งขวา",
    "river": "คลอง 24ซ้าย - 1ขวา"
   }, 
  {
    "name": "ปตร.บางนกแขวก",
    "lat": 13.500257729716402, 
    "lon": 99.92710576656144, 
    "office" : "สำนักชลประทานที่ 13",
    "province": "คบ.ดำเนินสะดวก",
    "river": "แม่น้ำแม่กลอง"
   }, 
  {
    "name": "ปตร.บางนกแขวก",
    "lat": 13.500257729716402, 
    "lon": 99.92710576656144, 
    "office" : "สำนักชลประทานที่ 13",
    "province": "คป.สมุทรสงคราม",
    "river": "แม่น้ำแม่กลอง"
   }
]